postcode,locality,region,island,lat,long,,territory
110,Abbey Caves,Northland,North Island,-35.749,174.327,,Whangarei
110,Avenues,Northland,North Island,-35.749,174.327,,Whangarei
110,Horahora,Northland,North Island,-35.749,174.327,,Whangarei
110,Morningside,Northland,North Island,-35.749,174.327,,Whangarei
110,Onerahi,Northland,North Island,-35.749,174.327,,Whangarei
110,Otaika,Northland,North Island,-35.749,174.327,,Whangarei
110,Port Whangarei,Northland,North Island,-35.749,174.327,,Whangarei
110,Raumanga,Northland,North Island,-35.749,174.327,,Whangarei
110,Whangarei Central,Northland,North Island,-35.749,174.327,,Whangarei
112,Glenbervie,Northland,North Island,-35.693,174.3001,,Whangarei
112,Kamo,Northland,North Island,-35.693,174.3001,,Whangarei
112,Kensington,Northland,North Island,-35.693,174.3001,,Whangarei
112,Mairtown,Northland,North Island,-35.693,174.3001,,Whangarei
112,Otangarei,Northland,North Island,-35.693,174.3001,,Whangarei
112,Parahaki,Northland,North Island,-35.693,174.3001,,Whangarei
112,Regent,Northland,North Island,-35.693,174.3001,,Whangarei
112,Riverside,Northland,North Island,-35.693,174.3001,,Whangarei
112,Tikipunga,Northland,North Island,-35.693,174.3001,,Whangarei
114,Hikurangi,Northland,North Island,-35.5909,174.2815,,Whangarei
114,Waro,Northland,North Island,-35.5909,174.2815,,Whangarei District
140,Riverside,Northland,North Island,-35.7245,174.3213,,Whangarei District
141,Otangarei,Northland,North Island,-35.6834,174.3008,,Whangarei District
142,Sherwood Rise,Northland,North Island,-35.7546,174.3681,,Whangarei District
143,Morningside,Northland,North Island,-35.7343,174.3054,,Whangarei District
144,Tikipunga,Northland,North Island,-35.6866,174.3266,,Whangarei District
145,Kensington,Northland,North Island,-35.7085,174.3207,,Whangarei District
146,Maungakaramea,Northland,North Island,-35.8451,174.2048,,Whangarei District
147,Woodhill,Northland,North Island,-35.7429,174.308,,Whangarei District
148,Woodhill,Northland,North Island,-35.7512,174.3152,,Whangarei District
149,Riverside,Northland,North Island,-35.7247,174.3259,,Whangarei District
150,Hikurangi,Northland,North Island,-35.5979,174.2863,,Whangarei District
151,Ruakaka,Northland,North Island,-35.8751,174.4554,,Whangarei District
152,Maungatapere,Northland,North Island,-35.7549,174.2081,,Whangarei District
153,Tutukaka,Northland,North Island,-35.6129,174.522,,Whangarei District
154,Ngunguru,Northland,North Island,-35.6297,174.5041,,Whangarei District
170,Puwera,Northland,North Island,-35.7762,174.268,,Whangarei District
171,Mata,Northland,North Island,-35.8556,174.3925,,Whangarei District
172,Parakao,Northland,North Island,-35.7039,173.9353,,Kaipara District
173,Kiripaka,Northland,North Island,-35.6147,174.4391,,Whangarei District
174,Whangarei Heads,Northland,North Island,-35.8069,174.4823,,Whangarei District
175,Tahere,Northland,North Island,-35.6943,174.4312,,Whangarei District
176,Moengawahine,Northland,North Island,-35.6306,174.1057,,Whangarei District
178,Maungakaramea,Northland,North Island,-35.852,174.2236,,Kaipara District
179,Maungatapere,Northland,North Island,-35.7562,174.1728,,Whangarei District
181,Marua,Northland,North Island,-35.5606,174.3839,,Whangarei District
182,Hukerenui,Northland,North Island,-35.4967,174.1879,,Far North District
184,Whangaruru North,Northland,North Island,-35.3593,174.3023,,Whangarei District
185,Ruatangata East,Northland,North Island,-35.6304,174.216,,Whangarei District
192,Rukuwai,Northland,North Island,-35.7429,174.4705,,Whangarei District
193,Waiotira,Northland,North Island,-35.9554,174.196,,Kaipara District
200,Paihia,Northland,North Island,-35.3073,174.0975,,Far North
241,Opua,Northland,North Island,-35.3124,174.1206,,Far North District
242,Russell,Northland,North Island,-35.2628,174.1228,,Far North District
243,Kawakawa,Northland,North Island,-35.3799,174.0672,,Far North District
244,Moerewa,Northland,North Island,-35.3875,174.0144,,Far North District
245,Kerikeri,Northland,North Island,-35.2289,173.9487,,Far North District
246,Waipapa,Northland,North Island,-35.206,173.9167,,Far North District
247,Paihia,Northland,North Island,-35.282,174.0915,,Far North District
271,Haruru,Northland,North Island,-35.2851,174.0397,,Far North District
272,Manawaora,Northland,North Island,-35.2844,174.1759,,Far North District
281,Pokere,Northland,North Island,-35.4904,174.0032,,Far North District
282,Karetu,Northland,North Island,-35.375,174.1364,,Far North District
283,Waihaha,Northland,North Island,-35.3488,174.1925,,Far North District
293,Puketona,Northland,North Island,-35.2621,173.9724,,Far North District
294,Purerua,Northland,North Island,-35.1578,174.0225,,Far North District
295,Waipapa,Northland,North Island,-35.1769,173.876,,Far North District
310,Awakino Point,Northland,North Island,-35.9542,173.8785,,Kaipara
310,Turiwiri,Northland,North Island,-35.9542,173.8785,,Kaipara
340,Dargaville,Northland,North Island,-35.9413,173.8697,,Kaipara District
341,Te Kopura,Northland,North Island,-36.0309,173.923,,Kaipara District
370,Arapohue,Northland,North Island,-36.0004,174.0199,,Kaipara District
371,Redhill,Northland,North Island,-36.0523,173.8602,,Kaipara District
372,Kairara,Northland,North Island,-35.8194,173.8585,,Kaipara District
373,Mamaranui,Northland,North Island,-35.8591,173.7106,,Kaipara District
374,Arapohue,Northland,North Island,-35.9673,173.9916,,Kaipara District
376,Tutamoe,Northland,North Island,-35.6467,173.6147,,Kaipara District
377,Baylys Beach,Northland,North Island,-35.9516,173.7818,,Kaipara District
379,Whatoro,Northland,North Island,-35.7555,173.6729,,Kaipara District
381,Kirikopuni,Northland,North Island,-35.8384,174.0082,,Kaipara District
391,Tangaihe,Northland,North Island,-36.2126,174.038,,Kaipara District
420,Cable Bay,Northland,North Island,-35.0008,173.4958,,Far North
420,Coopers Beach,Northland,North Island,-35.0008,173.4958,,Far North
420,Mangonui,Northland,North Island,-35.0008,173.4958,,Far North
420,Peria,Northland,North Island,-35.0008,173.4958,,Far North
440,Kaikohe,Northland,North Island,-35.4081,173.7986,,Far North District
441,Kaitaia,Northland,North Island,-35.114,173.2637,,Far North District
442,Mangonui,Northland,North Island,-34.9896,173.5366,,Far North District
443,Rawene,Northland,North Island,-35.3932,173.5056,,Far North District
444,Omapere,Northland,North Island,-35.5367,173.3862,,Far North District
445,Opononi,Northland,North Island,-35.5046,173.3924,,Far North District
446,Waimamaku,Northland,North Island,-35.556,173.4759,,Far North District
447,Okaihau,Northland,North Island,-35.3201,173.7713,,Far North District
448,Kaeo,Northland,North Island,-35.1006,173.7805,,Far North District
449,Ahipara,Northland,North Island,-35.171,173.1534,,Far North District
451,Awanui,Northland,North Island,-35.048,173.2565,,Far North District
453,Kohukohu,Northland,North Island,-35.3582,173.5461,,Far North District
460,Pukenui,Northland,North Island,-34.8149,173.1178,,Far North District
462,Broadwood,Northland,North Island,-35.2592,173.3896,,Far North District
472,Pakaraka,Northland,North Island,-35.3618,173.9337,,Far North District
473,Waima,Northland,North Island,-35.4963,173.5549,,Far North District
474,Tautoro,Northland,North Island,-35.5071,173.8144,,Far North District
475,Marangai,Northland,North Island,-35.3278,173.6987,,Far North District
476,Umawera,Northland,North Island,-35.2385,173.6264,,Far North District
478,Kaeo,Northland,North Island,-35.0974,173.7895,,Far North District
479,Saies,Northland,North Island,-35.0791,173.6798,,Far North District
481,Manukau,Northland,North Island,-35.2366,173.2382,,Far North District
482,Kaiaka,Northland,North Island,-35.1122,173.4133,,Far North District
483,Lake Ohia,Northland,North Island,-34.9593,173.3595,,Far North District
484,Te Kao,Northland,North Island,-34.6874,172.924,,Far North District
486,Waiharera,Northland,North Island,-34.9757,173.2179,,Far North District
491,Broadwood,Northland,North Island,-35.2764,173.4408,,Far North District
492,Panguru,Northland,North Island,-35.4197,173.3623,,Far North District
494,Paraoanui,Northland,North Island,-35.0088,173.621,,Far North District
496,Pawarenga,Northland,North Island,-35.3437,173.3046,,Far North District
505,Mangawhai,Northland,North Island,-36.0858,174.5842,,Kaipara
520,Maungaturoto,Northland,North Island,-36.1077,174.3568,,Kaipara
520,Rowsells,Northland,North Island,-36.1077,174.3568,,Kaipara District
540,Mangawhai,Northland,North Island,-36.1258,174.5746,,Kaipara District
541,Mangawhai Heads,Northland,North Island,-36.0946,174.5874,,Kaipara District
542,Kaiwaka,Northland,North Island,-36.1642,174.4428,,Kaipara District
543,Paparoa,Northland,North Island,-36.103,174.2315,,Kaipara District
545,Waipu,Northland,North Island,-35.9842,174.4453,,Whangarei District
547,Rowsells,Northland,North Island,-36.1102,174.3537,,Kaipara District
549,Ruawai,Northland,North Island,-36.1365,174.0233,,Kaipara District
550,Matakohe,Northland,North Island,-36.1298,174.1825,,Kaipara District
571,Mareretu,Northland,North Island,-36.053,174.2547,,Kaipara District
573,Kaiwaka,Northland,North Island,-36.1881,174.429,,Kaipara District
582,Waipu,Northland,North Island,-36.0052,174.4499,,Whangarei District
583,Marohemo,Northland,North Island,-36.1641,174.2892,,Kaipara District
587,Ranganui,Northland,North Island,-36.1441,174.4094,,Kaipara District
588,Maungaturoto,Northland,North Island,-36.0723,174.3737,,Kaipara District
589,Huarau,Northland,North Island,-36.0601,174.3167,,Kaipara District
591,Ruawai,Northland,North Island,-36.1195,174.0709,,Kaipara District
592,Rehia,Northland,North Island,-36.0549,174.0388,,Kaipara District
593,Pahi,Northland,North Island,-36.1962,174.2067,,Kaipara District
594,Matakohe,Northland,North Island,-36.0672,174.1446,,Kaipara District
600,Avondale,Auckland,North Island,-36.9158,174.6922,,Auckland
600,New Lynn,Auckland,North Island,-36.9158,174.6922,,Auckland
602,Glen Eden,Auckland,North Island,-36.9042,174.6474,,Auckland
602,Glendene,Auckland,North Island,-36.9042,174.6474,,Auckland
602,Te Atatu South,Auckland,North Island,-36.9042,174.6474,,Auckland
604,Cornwallis,Auckland,North Island,-36.9808,174.5827,,Auckland
604,Green Bay,Auckland,North Island,-36.9808,174.5827,,Auckland
604,Laingholm,Auckland,North Island,-36.9808,174.5827,,Auckland
604,Nihotupu,Auckland,North Island,-36.9808,174.5827,,Auckland
604,Oratia,Auckland,North Island,-36.9808,174.5827,,Auckland
604,Parau,Auckland,North Island,-36.9808,174.5827,,Auckland
604,Titirangi,Auckland,North Island,-36.9808,174.5827,,Auckland
604,Waiatarua,Auckland,North Island,-36.9808,174.5827,,Auckland
610,Henderson,Auckland,North Island,-36.8531,174.6466,,Auckland
610,Massey,Auckland,North Island,-36.8531,174.6466,,Auckland
610,Te Atatu Peninsula,Auckland,North Island,-36.8531,174.6466,,Auckland
612,Glen Eden,Auckland,North Island,-36.8988,174.5918,,Auckland
612,Henderson,Auckland,North Island,-36.8988,174.5918,,Auckland
612,Henderson Valley,Auckland,North Island,-36.8988,174.5918,,Auckland
612,McLaren Park,Auckland,North Island,-36.8988,174.5918,,Auckland
612,Ranui,Auckland,North Island,-36.8988,174.5918,,Auckland
612,Sunnyvale,Auckland,North Island,-36.8988,174.5918,,Auckland
612,Swanson,Auckland,North Island,-36.8988,174.5918,,Auckland
612,Waiatarua,Auckland,North Island,-36.8988,174.5918,,Auckland
614,Henderson Valley,Auckland,North Island,-36.8546,174.584,,Auckland
614,Massey,Auckland,North Island,-36.8546,174.584,,Auckland
614,Ranui,Auckland,North Island,-36.8546,174.584,,Auckland
614,Waitakere,Auckland,North Island,-36.8546,174.584,,Auckland
618,Herald Island,Auckland,North Island,-36.7987,174.6378,,Auckland
618,West Harbour,Auckland,North Island,-36.7987,174.6378,,Auckland
618,Whenuapai,Auckland,North Island,-36.7987,174.6378,,Auckland
620,Castor Bay,Auckland,North Island,-36.7661,174.7548,,Auckland
620,Milford,Auckland,North Island,-36.7661,174.7548,,Auckland
620,Sunnynook,Auckland,North Island,-36.7661,174.7548,,Auckland
620,Sunset North,Auckland,North Island,-36.7661,174.7548,,Auckland
620,Takapuna,Auckland,North Island,-36.7661,174.7548,,Auckland
622,Bayswater,Auckland,North Island,-36.801,174.778,,Auckland
622,Hauraki,Auckland,North Island,-36.801,174.778,,Auckland
622,Milford,Auckland,North Island,-36.801,174.778,,Auckland
622,Takapuna,Auckland,North Island,-36.801,174.778,,Auckland
624,Narrow Neck,Auckland,North Island,-36.8236,174.7918,,Auckland
624,Stanley Point,Auckland,North Island,-36.8236,174.7918,,Auckland
626,Beach Haven,Auckland,North Island,-36.8058,174.7083,,Auckland
626,Birkdale,Auckland,North Island,-36.8058,174.7083,,Auckland
626,Birkenhead,Auckland,North Island,-36.8058,174.7083,,Auckland
627,Hillcrest,Auckland,North Island,-36.798,174.7462,,Auckland
627,North Shore,Auckland,North Island,-36.798,174.7462,,Auckland
627,Northcote,Auckland,North Island,-36.798,174.7462,,Auckland
627,Wairau Valley,Auckland,North Island,-36.798,174.7462,,Auckland
629,Glenfield,Auckland,North Island,-36.7753,174.7199,,Auckland
629,Totaravale,Auckland,North Island,-36.7753,174.7199,,Auckland
630,Campbells Bay,Auckland,North Island,-36.7215,174.7447,,Auckland
630,Mairangi Bay,Auckland,North Island,-36.7215,174.7447,,Auckland
630,Murrays Bay,Auckland,North Island,-36.7215,174.7447,,Auckland
630,Rothesay Bay,Auckland,North Island,-36.7215,174.7447,,Auckland
630,Torbay,Auckland,North Island,-36.7215,174.7447,,Auckland
630,Waiake,Auckland,North Island,-36.7215,174.7447,,Auckland
632,Albany,Auckland,North Island,-36.7443,174.6948,,Auckland
632,Glenfield,Auckland,North Island,-36.7443,174.6948,,Auckland
632,Meadowood,Auckland,North Island,-36.7443,174.6948,,Auckland
632,Northcross,Auckland,North Island,-36.7443,174.6948,,Auckland
632,Paremoremo,Auckland,North Island,-36.7443,174.6948,,Auckland
632,Pinehill,Auckland,North Island,-36.7443,174.6948,,Auckland
632,Rosedale,Auckland,North Island,-36.7443,174.6948,,Auckland
632,Sunnynook,Auckland,North Island,-36.7443,174.6948,,Auckland
632,Sunset North,Auckland,North Island,-36.7443,174.6948,,Auckland
640,New Lynn,Auckland,North Island,-36.9079,174.6831,,Auckland
641,Glen Eden,Auckland,North Island,-36.9118,174.652,,Auckland
642,Titirangi,Auckland,North Island,-36.9378,174.6575,,Auckland
643,Green Bay,Auckland,North Island,-36.9306,174.6801,,Auckland
644,Blockhouse Bay,Auckland,North Island,-36.9234,174.7015,,Auckland
645,Glendene,Auckland,North Island,-36.8869,174.6446,,Auckland
650,Sunnyvale,Auckland,North Island,-36.881,174.6347,,Auckland
651,Te Atatu,Auckland,North Island,-36.8422,174.6515,,Auckland
652,Te Atatu South,Auckland,North Island,-36.865,174.6463,,Auckland
653,Swanson,Auckland,North Island,-36.8655,174.58,,Auckland
654,Te Atatu South,Auckland,North Island,-36.8557,174.6298,,Auckland
655,Swanson,Auckland,North Island,-36.8639,174.6011,,Auckland
656,Massey East,Auckland,North Island,-36.8332,174.6224,,Auckland
657,West Harbour,Auckland,North Island,-36.8222,174.6105,,Auckland
660,Waitakere,Auckland,North Island,-36.8492,174.5447,,Auckland
661,Te Atatu Peninsula,Auckland,North Island,-36.8107,174.6446,,Auckland
662,Brighams Creek,Auckland,North Island,-36.7935,174.6163,,Auckland
663,Massey East,Auckland,North Island,-36.8185,174.6292,,Auckland
740,Hauraki,Auckland,North Island,-36.7875,174.7729,,Auckland
741,Milford,Auckland,North Island,-36.7728,174.7661,,Auckland
742,Torbay,Auckland,North Island,-36.6949,174.7506,,Auckland
743,Forrest Hill,Auckland,North Island,-36.7512,174.7467,,Auckland
744,Devenport,Auckland,North Island,-36.8303,174.7969,,Auckland
745,Glenfield,Auckland,North Island,-36.768,174.7395,,Auckland
746,Birkenhead,Auckland,North Island,-36.8123,174.7254,,Auckland
747,Marlborough,Auckland,North Island,-36.782,174.7216,,Auckland
748,North Shore,Auckland,North Island,-36.8017,174.7446,,Auckland
749,Birkdale,Auckland,North Island,-36.7925,174.6872,,Auckland
750,Takapuna,Auckland,North Island,-36.7969,174.7782,,Auckland
751,Glenfield,Auckland,North Island,-36.7513,174.7139,,Auckland
752,Albany,Auckland,North Island,-36.7313,174.7075,,Auckland
753,Browns Bay,Auckland,North Island,-36.7155,174.7484,,Auckland
754,Mairangi Bay,Auckland,North Island,-36.7384,174.7534,,Auckland
755,Albany,Auckland,North Island,-36.7246,174.6952,,Auckland
756,Paremoremo,Auckland,North Island,-36.7758,174.6702,,Auckland
757,Forrest Hill,Auckland,North Island,-36.743,174.7248,,Auckland
758,Mairangi Bay,Auckland,North Island,-36.7397,174.7419,,Auckland
772,Karekare,Auckland,North Island,-36.9656,174.4894,,Auckland
781,Piha,Auckland,North Island,-36.8981,174.4855,,Auckland
782,Waitakere,Auckland,North Island,-36.8333,174.5226,,Auckland
792,Red Vale,Auckland,North Island,-36.6884,174.6927,,Auckland
793,Coatesville,Auckland,North Island,-36.7222,174.6236,,Auckland
794,Dairy Flat,Auckland,North Island,-36.6687,174.6549,,Auckland
810,Huapai,Auckland,North Island,-36.7726,174.5488,,Auckland
810,Kumeu,Auckland,North Island,-36.7726,174.5488,,Auckland
814,Kumeu,Auckland,North Island,-36.8061,174.5993,,Auckland
814,Massey,Auckland,North Island,-36.8061,174.5993,,Auckland
814,West Harbour,Auckland,North Island,-36.8061,174.5993,,Auckland
814,Whenuapai,Auckland,North Island,-36.8061,174.5993,,Auckland
840,Helensville,Auckland,North Island,-36.6764,174.4505,,Auckland
841,Huapai,Auckland,North Island,-36.7754,174.5548,,Auckland
842,Pahitoa,Auckland,North Island,-36.7687,174.4926,,Auckland
843,Kaukapakapa,Auckland,North Island,-36.6164,174.4933,,Auckland
871,Kaukapakapa,Auckland,North Island,-36.6354,174.5287,,Auckland
873,Parakakau,Auckland,North Island,-36.5611,174.5841,,Auckland
874,Parkhurst,Auckland,North Island,-36.5652,174.3028,,Auckland
875,Helensville,Auckland,North Island,-36.6868,174.4557,,Auckland
881,Woodhill,Auckland,North Island,-36.7829,174.4262,,Auckland
882,Waimauku,Auckland,North Island,-36.7176,174.5263,,Auckland
883,Pahitoa,Auckland,North Island,-36.7604,174.4673,,Auckland
891,Huapai,Auckland,North Island,-36.7875,174.5296,,Auckland
892,Kumeu,Auckland,North Island,-36.7596,174.571,,Auckland
920,Algies Bay,Auckland,North Island,-36.308,174.9148,,Auckland
920,Kawau Island,Auckland,North Island,-36.308,174.9148,,Auckland
920,Leigh,Auckland,North Island,-36.308,174.9148,,Auckland
920,Snells Beach,Auckland,North Island,-36.308,174.9148,,Auckland
930,Army Bay,Auckland,North Island,-36.6172,174.7966,,Auckland
930,Gulf Harbour,Auckland,North Island,-36.6172,174.7966,,Auckland
930,Manly,Auckland,North Island,-36.6172,174.7966,,Auckland
930,Tindalls Beach,Auckland,North Island,-36.6172,174.7966,,Auckland
930,Whangaparaoa,Auckland,North Island,-36.6172,174.7966,,Auckland
931,Hatfields Beach,Auckland,North Island,-36.58,174.6853,,Auckland
932,Arkles Bay,Auckland,North Island,-36.6232,174.7063,,Auckland
932,Orewa,Auckland,North Island,-36.6232,174.7063,,Auckland
932,Redvale,Auckland,North Island,-36.6232,174.7063,,Auckland
932,Stanmore Bay,Auckland,North Island,-36.6232,174.7063,,Auckland
940,Wellsford,Auckland,North Island,-36.2938,174.5238,,Auckland
941,Warkworth,Auckland,North Island,-36.3978,174.6639,,Auckland
942,Snells Beach,Auckland,North Island,-36.4204,174.7235,,Auckland
943,Whangaparaoa,Auckland,North Island,-36.6366,174.748,,Auckland
944,Silverdale,Auckland,North Island,-36.6178,174.6778,,Auckland
945,Red Beach,Auckland,North Island,-36.6056,174.6978,,Auckland
946,Orewa,Auckland,North Island,-36.5856,174.6943,,Auckland
947,Leigh,Auckland,North Island,-36.2905,174.8047,,Auckland
948,Matakana,Auckland,North Island,-36.3519,174.7169,,Auckland
950,Waiwera,Auckland,North Island,-36.5447,174.7058,,Auckland
951,Puhoi,Auckland,North Island,-36.5121,174.661,,Auckland
960,Okiwi,Auckland,North Island,-36.1556,175.3935,,Auckland
961,Okupu,Auckland,North Island,-36.2427,175.462,,Auckland
962,Tryphena,Auckland,North Island,-36.3015,175.4883,,Auckland
963,Port Fitzroy,Auckland,North Island,-36.1639,175.3624,,Auckland
972,Wayby,Auckland,North Island,-36.3001,174.6126,,Auckland
973,Wharehine,Auckland,North Island,-36.315,174.447,,Auckland
974,Te Hana,Auckland,North Island,-36.2485,174.6008,,Auckland
975,Topuni,Northland,North Island,-36.1895,174.5252,,Kaipara District
977,Wharehine,Auckland,North Island,-36.3561,174.3225,,Auckland
981,Woodcocks,Auckland,North Island,-36.4243,174.5979,,Auckland
982,Algies Bay,Auckland,North Island,-36.4404,174.7235,,Auckland
983,Pohuehue,Auckland,North Island,-36.4709,174.6573,,Auckland
984,Ahuroa,Auckland,North Island,-36.501,174.5307,,Auckland
985,Big Omaha,Auckland,North Island,-36.3249,174.7381,,Auckland
986,Tawharanui,Auckland,North Island,-36.3544,174.8003,,Auckland
991,Whangapara,Auckland,North Island,-36.2,175.4287,,Auckland
992,Silverdale,Auckland,North Island,-36.5992,174.6619,,Auckland
993,Red Beach,Auckland,North Island,-36.6374,174.693,,Auckland
1010,Auckland Central,Auckland,North Island,-36.8052,174.9811,,Auckland
1010,Eden Terrace,Auckland,North Island,-36.8052,174.9811,,Auckland
1010,Grafton,Auckland,North Island,-36.8052,174.9811,,Auckland
1010,Mechanics Bay,Auckland,North Island,-36.8052,174.9811,,Auckland
1010,Parnell,Auckland,North Island,-36.8052,174.9811,,Auckland
1010,Rakino Island,Auckland,North Island,-36.7187,174.9483,,Auckland
1010,Surfdale,Auckland,North Island,-36.8052,174.9811,,Auckland
1011,Freemans Bay,Auckland,North Island,-36.8447,174.7336,,Auckland
1011,Herne Bay,Auckland,North Island,-36.8447,174.7336,,Auckland
1011,Ponsonby,Auckland,North Island,-36.8447,174.7336,,Auckland
1011,St Marys Bay,Auckland,North Island,-36.8447,174.7336,,Auckland
1011,Westhaven,Auckland,North Island,-36.8447,174.7336,,Auckland
1021,Arch Hill,Auckland,North Island,-36.863,174.7432,,Auckland
1021,Eden Terrace,Auckland,North Island,-36.863,174.7432,,Auckland
1021,Grey Lynn,Auckland,North Island,-36.863,174.7432,,Auckland
1021,Kingsland,Auckland,North Island,-36.863,174.7432,,Auckland
1021,Ponsonby,Auckland,North Island,-36.863,174.7432,,Auckland
1022,Mt Albert,Auckland,North Island,-36.8585,174.7053,,Auckland
1022,Point Chevalier,Auckland,North Island,-36.8585,174.7053,,Auckland
1022,Western Springs,Auckland,North Island,-36.8585,174.7053,,Auckland
1022,Westmere,Auckland,North Island,-36.8585,174.7053,,Auckland
1023,Epsom,Auckland,North Island,-36.8872,174.7709,,Auckland
1023,Grafton,Auckland,North Island,-36.8872,174.7709,,Auckland
1023,Newmarket,Auckland,North Island,-36.8872,174.7709,,Auckland
1023,Royal Oak,Auckland,North Island,-36.8872,174.7709,,Auckland
1024,Epsom,Auckland,North Island,-36.8877,174.7529,,Auckland
1024,Mt Eden,Auckland,North Island,-36.8877,174.7529,,Auckland
1024,Three Kings,Auckland,North Island,-36.8877,174.7529,,Auckland
1025,Mt Albert,Auckland,North Island,-36.8844,174.7238,,Auckland
1025,Mt Roskill,Auckland,North Island,-36.8844,174.7238,,Auckland
1025,Point Chevalier,Auckland,North Island,-36.8844,174.7238,,Auckland
1025,Sandringham,Auckland,North Island,-36.8844,174.7238,,Auckland
1026,Avondale,Auckland,North Island,-36.876,174.6829,,Auckland
1026,Waterview,Auckland,North Island,-36.876,174.6829,,Auckland
1041,Mount Roskill,Auckland,North Island,-36.9125,174.7335,,Auckland
1041,Mt Eden,Auckland,North Island,-36.9125,174.7335,,Auckland
1041,Mt Roskill,Auckland,North Island,-36.9125,174.7335,,Auckland
1041,Sandringham,Auckland,North Island,-36.9125,174.7335,,Auckland
1042,Hillsborough,Auckland,North Island,-36.9214,174.7393,,Auckland
1042,Lynfield,Auckland,North Island,-36.9214,174.7393,,Auckland
1042,Three Kings,Auckland,North Island,-36.9214,174.7393,,Auckland
1050,Remuera,Auckland,North Island,-36.8768,174.8042,,Auckland
1050,St Johns,Auckland,North Island,-36.8768,174.8042,,Auckland
1051,Ellerslie,Auckland,North Island,-36.8917,174.8071,,Auckland
1051,Epsom,Auckland,North Island,-36.8917,174.8071,,Auckland
1051,Greenlane,Auckland,North Island,-36.8917,174.8071,,Auckland
1051,Mt Wellington,Auckland,North Island,-36.8917,174.8071,,Auckland
1051,One Tree Hill,Auckland,North Island,-36.8917,174.8071,,Auckland
1051,Remuera,Auckland,North Island,-36.8917,174.8071,,Auckland
1052,Parnell,Auckland,North Island,-36.857,174.7914,,Auckland
1052,Point Resolution,Auckland,North Island,-36.857,174.7914,,Auckland
1060,Ellerslie,Auckland,North Island,-36.9177,174.8356,,Auckland
1060,Mt Wellington,Auckland,North Island,-36.9177,174.8356,,Auckland
1060,Penrose,Auckland,North Island,-36.9177,174.8356,,Auckland
1061,Ellerslie,Auckland,North Island,-36.9155,174.7991,,Auckland
1061,Greenlane,Auckland,North Island,-36.9155,174.7991,,Auckland
1061,Hillsborough,Auckland,North Island,-36.9155,174.7991,,Auckland
1061,One Tree Hill,Auckland,North Island,-36.9155,174.7991,,Auckland
1061,Onehunga,Auckland,North Island,-36.9155,174.7991,,Auckland
1061,Penrose,Auckland,North Island,-36.9155,174.7991,,Auckland
1061,Royal Oak,Auckland,North Island,-36.9155,174.7991,,Auckland
1061,Te Papapa,Auckland,North Island,-36.9155,174.7991,,Auckland
1062,OTAHUHU,Auckland,North Island,-36.941,174.8483,,Auckland
1071,Glendowie,Auckland,North Island,-36.8565,174.8482,,Auckland
1071,Kohimarama,Auckland,North Island,-36.8565,174.8482,,Auckland
1071,Mission Bay,Auckland,North Island,-36.8565,174.8482,,Auckland
1071,Orakei,Auckland,North Island,-36.8565,174.8482,,Auckland
1071,St Heliers,Auckland,North Island,-36.8565,174.8482,,Auckland
1072,Glen Innes,Auckland,North Island,-36.8873,174.8528,,Auckland
1072,Meadowbank,Auckland,North Island,-36.8873,174.8528,,Auckland
1072,Mt Wellington,Auckland,North Island,-36.8873,174.8528,,Auckland
1072,Panmure,Auckland,North Island,-36.8873,174.8528,,Auckland
1072,Point England,Auckland,North Island,-36.8873,174.8528,,Auckland
1072,Remuera,Auckland,North Island,-36.8873,174.8528,,Auckland
1072,St Johns,Auckland,North Island,-36.8873,174.8528,,Auckland
1072,Tamaki,Auckland,North Island,-36.8873,174.8528,,Auckland
1081,Omiha,Auckland,North Island,-36.7932,175.0362,,Auckland
1081,Oneroa,Auckland,North Island,-36.7932,175.0362,,Auckland
1081,Onetangi,Auckland,North Island,-36.7932,175.0362,,Auckland
1081,Ostend,Auckland,North Island,-36.7932,175.0362,,Auckland
1081,Waiheke Island,Auckland,North Island,-36.7932,175.0362,,Auckland
1140,Mechanics Bay,Auckland,North Island,-36.8472,174.7692,,Auckland
1141,Newmarket,Auckland,North Island,-36.8507,174.7632,,Auckland
1142,Newton,Auckland,North Island,-36.8478,174.7577,,Auckland
1143,Mechanics Bay,Auckland,North Island,-36.8451,174.7675,,Auckland
1144,Freemans Bay,Auckland,North Island,-36.8481,174.7437,,Auckland
1145,Grafton,Auckland,North Island,-36.8578,174.7579,,Auckland
1147,Herne Bay,Auckland,North Island,-36.846,174.7339,,Auckland
1148,Auckland,Auckland,North Island,-36.8609,174.7695,,Auckland
1149,Parnell,Auckland,North Island,-36.8731,174.7773,,Auckland
1150,Auckland,Auckland,North Island,-36.8641,174.7621,,Auckland
1151,Point Resolution,Auckland,North Island,-36.8568,174.7811,,Auckland
1245,Western Springs,Auckland,North Island,-36.8654,174.7378,,Auckland
1246,Mount Albert,Auckland,North Island,-36.8702,174.7107,,Auckland
1340,Wesley,Auckland,North Island,-36.9004,174.72,,Auckland
1342,Balmoral,Auckland,North Island,-36.8885,174.7472,,Auckland
1344,One Tree Hill,Auckland,North Island,-36.8918,174.7745,,Auckland
1345,Royal Oak,Auckland,North Island,-36.9117,174.7763,,Auckland
1346,Sandringham,Auckland,North Island,-36.8837,174.733,,Auckland
1347,One Tree Hill,Auckland,North Island,-36.9,174.7734,,Auckland
1348,Avondale,Auckland,North Island,-36.8878,174.6845,,Auckland
1349,Epsom,Auckland,North Island,-36.8823,174.7619,,Auckland
1350,Owairaka,Auckland,North Island,-36.8849,174.715,,Auckland
1351,Balmoral,Auckland,North Island,-36.893,174.7363,,Auckland
1352,Mount Eden,Auckland,North Island,-36.8724,174.744,,Auckland
1440,Three Kings,Auckland,North Island,-36.9032,174.742,,Auckland
1443,Lynfield,Auckland,North Island,-36.9262,174.7231,,Auckland
1445,Waikowhai,Auckland,North Island,-36.9202,174.7367,,Auckland
1446,Mount Eden,Auckland,North Island,-36.8801,174.7495,,Auckland
1541,Greenlane,Auckland,North Island,-36.8804,174.798,,Auckland
1542,Ellerslie,Auckland,North Island,-36.898,174.8092,,Auckland
1543,Greenlane,Auckland,North Island,-36.8823,174.7849,,Auckland
1544,Ellerslie,Auckland,North Island,-36.8992,174.8053,,Auckland
1545,Panmure,Auckland,North Island,-36.8961,174.8324,,Auckland
1546,Ellerslie,Auckland,North Island,-36.895,174.8001,,Auckland
1640,Otahuhu,Auckland,North Island,-36.9444,174.8441,,Auckland
1641,Panmure,Auckland,North Island,-36.9079,174.838,,Auckland
1642,Mount Wellington,Auckland,North Island,-36.9097,174.8145,,Auckland
1643,Onehunga,Auckland,North Island,-36.9205,174.7861,,Auckland
1740,Saint Heliers,Auckland,North Island,-36.8507,174.8577,,Auckland
1741,Panmure,Auckland,North Island,-36.9005,174.8557,,Auckland
1742,Meadowbank,Auckland,North Island,-36.8758,174.8277,,Auckland
1743,Point England,Auckland,North Island,-36.8791,174.8552,,Auckland
1744,Mission Bay,Auckland,North Island,-36.8493,174.8288,,Auckland
1745,Orakei,Auckland,North Island,-36.856,174.8147,,Auckland
1746,New Windsor,Auckland,North Island,-36.8975,174.6973,,Auckland
1840,Oneroa,Auckland,North Island,-36.7834,175.0105,,Auckland
1841,Onetangi,Auckland,North Island,-36.792,175.0798,,Auckland
1842,Blackpool,Auckland,North Island,-36.7938,175.026,,Auckland
1843,Ostend,Auckland,North Island,-36.796,175.0465,,Auckland
1971,Onetangi,Auckland,North Island,-36.7931,175.0922,,Auckland
2010,Botany Downs,Auckland,North Island,-36.9104,174.8925,,Auckland
2010,Highland Park,Auckland,North Island,-36.9104,174.8925,,Auckland
2010,Howick,Auckland,North Island,-36.9104,174.8925,,Auckland
2010,Pakuranga,Auckland,North Island,-36.9104,174.8925,,Auckland
2010,Pakuranga Heights,Auckland,North Island,-36.9104,174.8925,,Auckland
2012,Bucklands Beach,Auckland,North Island,-36.8714,174.8978,,Auckland
2012,Eastern Beach,Auckland,North Island,-36.8714,174.8978,,Auckland
2012,Farm Cove,Auckland,North Island,-36.8714,174.8978,,Auckland
2012,Half Moon Bay,Auckland,North Island,-36.8714,174.8978,,Auckland
2013,Burswood,Auckland,North Island,-36.9373,174.8935,,Auckland
2013,Dannemora,Auckland,North Island,-36.9373,174.8935,,Auckland
2013,East Tamaki,Auckland,North Island,-36.9373,174.8935,,Auckland
2013,Golflands,Auckland,North Island,-36.9373,174.8935,,Auckland
2013,Huntington Park,Auckland,North Island,-36.9373,174.8935,,Auckland
2013,Otara,Auckland,North Island,-36.9373,174.8935,,Auckland
2014,Botany Downs,Auckland,North Island,-36.898,174.9308,,Auckland
2014,Bucklands Beach,Auckland,North Island,-36.898,174.9308,,Auckland
2014,Cockle Bay,Auckland,North Island,-36.898,174.9308,,Auckland
2014,Golflands,Auckland,North Island,-36.898,174.9308,,Auckland
2014,Half Moon Bay,Auckland,North Island,-36.898,174.9308,,Auckland
2014,Howick,Auckland,North Island,-36.898,174.9308,,Auckland
2014,Shelly Park,Auckland,North Island,-36.898,174.9308,,Auckland
2014,Somerville,Auckland,North Island,-36.898,174.9308,,Auckland
2016,Dannemora,Auckland,North Island,-36.9647,174.9241,,Auckland
2016,East Tamaki,Auckland,North Island,-36.9647,174.9241,,Auckland
2016,Ormiston,Auckland,North Island,-36.9647,174.9241,,Auckland
2016,Otara,Auckland,North Island,-36.9647,174.9241,,Auckland
2016,Wairere,Auckland,North Island,-36.9647,174.9241,,Auckland
2018,Beachlands,Auckland,North Island,-36.8818,175.0134,,Auckland
2018,Maraetai,Auckland,North Island,-36.8818,175.0134,,Auckland
2022,Auckland Airport,Auckland,North Island,-36.9784,174.7817,,Auckland
2022,Mangere,Auckland,North Island,-36.9784,174.7817,,Auckland
2022,Mangere Bridge,Auckland,North Island,-36.9784,174.7817,,Auckland
2022,Mangere South,Auckland,North Island,-36.9784,174.7817,,Auckland
2023,Clover Park,Auckland,North Island,-36.969,174.8822,,Auckland
2023,Ormiston,Auckland,North Island,-36.969,174.8822,,Auckland
2023,Otara,Auckland,North Island,-36.969,174.8822,,Auckland
2023,Wiri,Auckland,North Island,-36.969,174.8822,,Auckland
2024,Favona,Auckland,North Island,-36.9559,174.8184,,Auckland
2024,Mangere East,Auckland,North Island,-36.9559,174.8184,,Auckland
2024,Otahuhu,Auckland,North Island,-36.9559,174.8184,,Auckland
2025,Manukau,Auckland,North Island,-36.9915,174.8466,,Auckland
2025,Otara,Auckland,North Island,-36.9915,174.8466,,Auckland
2025,Papatoetoe,Auckland,North Island,-36.9915,174.8466,,Auckland
2025,Wiri,Auckland,North Island,-36.9915,174.8466,,Auckland
2102,Manurewa,Auckland,North Island,-37.0234,174.8856,,Auckland
2102,Manurewa East,Auckland,North Island,-37.0234,174.8856,,Auckland
2103,Clendon Park,Auckland,North Island,-37.0408,174.8752,,Auckland
2103,Wattle Downs,Auckland,North Island,-37.0408,174.8752,,Auckland
2103,Weymouth,Auckland,North Island,-37.0408,174.8752,,Auckland
2104,Manukau,Auckland,North Island,-37.0011,174.8672,,Auckland
2104,Papatoetoe,Auckland,North Island,-37.0011,174.8672,,Auckland
2104,Wiri,Auckland,North Island,-37.0011,174.8672,,Auckland
2105,Alfriston,Auckland,North Island,-37.0135,174.9183,,Auckland
2105,Clover Park,Auckland,North Island,-37.0135,174.9183,,Auckland
2105,Conifer Grove,Auckland,North Island,-37.0135,174.9183,,Auckland
2105,Goodwood Heights,Auckland,North Island,-37.0135,174.9183,,Auckland
2105,Manurewa East,Auckland,North Island,-37.0135,174.9183,,Auckland
2105,Randwick Park,Auckland,North Island,-37.0135,174.9183,,Auckland
2105,Takanini,Auckland,North Island,-37.0135,174.9183,,Auckland
2105,The Gardens,Auckland,North Island,-37.0135,174.9183,,Auckland
2105,Wairere,Auckland,North Island,-37.0135,174.9183,,Auckland
2110,Papakura,Auckland,North Island,-37.0609,174.9656,,Auckland
2110,Red Hill,Auckland,North Island,-37.0609,174.9656,,Auckland
2112,Conifer Grove,Auckland,North Island,-37.045,174.9202,,Auckland
2112,Takanini,Auckland,North Island,-37.045,174.9202,,Auckland
2113,Drury,Auckland,North Island,-37.0874,174.9409,,Auckland
2113,Opaheke,Auckland,North Island,-37.0874,174.9409,,Auckland
2113,Pahurehure,Auckland,North Island,-37.0874,174.9409,,Auckland
2113,Papakura,Auckland,North Island,-37.0874,174.9409,,Auckland
2113,Rosehill,Auckland,North Island,-37.0874,174.9409,,Auckland
2120,Pukekohe,Auckland,North Island,-37.2088,174.8945,,Auckland
2121,Tuakau,Waikato,North Island,-37.2674,174.9395,,Waikato District
2122,Clarks Beach,Auckland,North Island,-37.1379,174.6979,,Auckland
2122,Waiau Pa,Auckland,North Island,-37.1379,174.6979,,Auckland
2123,Waiuku,Auckland,North Island,-37.2484,174.7359,,Auckland
2140,Pakuranga,Auckland,North Island,-36.9121,174.8708,,Auckland
2141,East Tamaki,Auckland,North Island,-36.9311,174.8971,,Auckland
2142,East Tamaki,Auckland,North Island,-36.9322,174.9122,,Auckland
2143,Botany Downs,Auckland,North Island,-36.8983,174.9069,,Auckland
2144,Eastern Beach,Auckland,North Island,-36.8681,174.904,,Auckland
2145,Shelly Park,Auckland,North Island,-36.8937,174.9315,,Auckland
2146,Shelly Park,Auckland,North Island,-36.9041,174.9392,,Auckland
2147,Beachlands,Auckland,North Island,-36.8825,174.9969,,Auckland
2148,Maraetai,Auckland,North Island,-36.8804,175.0343,,Auckland
2149,Whitford,Auckland,North Island,-36.9456,174.965,,Auckland
2150,Mangere,Auckland,North Island,-36.9986,174.7885,,Auckland
2151,Favona,Auckland,North Island,-36.9422,174.7875,,Auckland
2153,Mangere,Auckland,North Island,-36.9702,174.7993,,Auckland
2154,Mangere,Auckland,North Island,-36.9699,174.7856,,Auckland
2155,Papatoetoe,Auckland,North Island,-36.9714,174.8621,,Auckland
2156,Papatoetoe,Auckland,North Island,-36.9797,174.8541,,Auckland
2157,Wiri,Auckland,North Island,-36.9805,174.8767,,Auckland
2158,Mangere East,Auckland,North Island,-36.9665,174.8251,,Auckland
2159,Otara,Auckland,North Island,-36.9611,174.8732,,Auckland
2160,Wiri,Auckland,North Island,-36.9774,174.8968,,Auckland
2240,Homai,Auckland,North Island,-37.0068,174.875,,Auckland
2241,Wiri,Auckland,North Island,-36.992,174.8815,,Auckland
2242,Weymouth,Auckland,North Island,-37.0332,174.8692,,Auckland
2243,Manurewa East,Auckland,North Island,-37.022,174.8966,,Auckland
2244,Pahurehure,Auckland,North Island,-37.0616,174.9417,,Auckland
2245,Takanini,Auckland,North Island,-37.0392,174.9198,,Auckland
2246,Pahurehure,Auckland,North Island,-37.0486,174.9282,,Auckland
2247,Drury,Auckland,North Island,-37.1023,174.9514,,Auckland
2248,Clevedon,Auckland,North Island,-36.9927,175.0373,,Auckland
2340,Pukekohe,Auckland,North Island,-37.1999,174.9058,,Auckland
2341,Waiuku,Auckland,North Island,-37.251,174.7286,,Auckland
2342,Tuakau,Waikato,North Island,-37.258,174.9466,,Waikato District
2343,Bombay,Auckland,North Island,-37.1862,174.9912,,Auckland
2344,Patumahoe,Auckland,North Island,-37.1871,174.829,,Auckland
2345,Waiau Pa,Auckland,North Island,-37.1495,174.7647,,Auckland
2440,Pokeno,Waikato,North Island,-37.2457,175.0215,,Waikato District
2441,Meremere,Waikato,North Island,-37.3231,175.0694,,Waikato District
2471,Kopuku,Auckland,North Island,-37.2446,175.1648,,Auckland
2472,Pokeno,Waikato,North Island,-37.2224,175.0053,,Waikato District
2473,Kaiaua,Waikato,North Island,-37.1222,175.2316,,Waikato District
2474,Mercer,Waikato,North Island,-37.2798,175.0728,,Waikato District
2571,Waikopua,Auckland,North Island,-36.9162,174.991,,Auckland
2576,Whitford,Auckland,North Island,-36.9781,174.9855,,Auckland
2577,Drury,Auckland,North Island,-37.1147,174.9742,,Auckland
2578,Ramarama,Auckland,North Island,-37.1313,174.935,,Auckland
2579,Ararimu,Auckland,North Island,-37.1436,175.0191,,Auckland
2580,Weymouth,Auckland,North Island,-37.1032,174.8609,,Auckland
2582,Clevedon,Auckland,North Island,-36.9738,175.0179,,Auckland
2583,Paparimu,Auckland,North Island,-37.0996,175.1194,,Auckland
2584,Opaheke,Auckland,North Island,-37.1003,175.0012,,Auckland
2585,Whakatiri,Auckland,North Island,-36.9896,175.1648,,Auckland
2675,Ararimu,Auckland,North Island,-37.185,175.0338,,Auckland
2676,Paerata,Auckland,North Island,-37.1735,174.8913,,Auckland
2677,Pukekohe East,Waikato,North Island,-37.216,174.9333,,Waikato District
2678,Mauku,Auckland,North Island,-37.2305,174.8412,,Auckland
2679,Waiau Pa,Auckland,North Island,-37.1394,174.7893,,Auckland
2681,Glenbrook,Waikato,North Island,-37.2045,174.7562,,Waikato District
2682,Otaua,Auckland,North Island,-37.3092,174.7493,,Auckland
2683,Waipipi,Auckland,North Island,-37.2288,174.6664,,Auckland
2684,Pollok,Auckland,North Island,-37.1186,174.6161,,Auckland
2693,Te Kohanga,Waikato,North Island,-37.3001,174.8746,,Waikato District
2694,Tuakau,Waikato,North Island,-37.2626,174.9591,,Waikato District
2695,Kaawa,Waikato,North Island,-37.4521,174.8611,,Waikato District
2696,Opuatia,Waikato,North Island,-37.3556,175.0016,,Waikato District
2697,Te Kohanga,Waikato,North Island,-37.3909,174.871,,Waikato District
3010,Glenholme,Bay of Plenty,North Island,-38.1178,176.2514,,Rotorua
3010,Kawaha Point,Bay of Plenty,North Island,-38.1178,176.2514,,Rotorua
3010,Koutu,Bay of Plenty,North Island,-38.1178,176.2514,,Rotorua
3010,Lynmore,Bay of Plenty,North Island,-38.1178,176.2514,,Rotorua
3010,Ngapuna,Bay of Plenty,North Island,-38.1178,176.2514,,Rotorua
3010,Ngongotaha,Bay of Plenty,North Island,-38.1178,176.2514,,Rotorua
3010,Ohinemutu,Bay of Plenty,North Island,-38.1178,176.2514,,Rotorua District
3010,Owhata,Bay of Plenty,North Island,-38.1178,176.2514,,Rotorua
3010,Rotorua,Bay of Plenty,North Island,-38.1178,176.2514,,Rotorua
3010,Victoria,Bay of Plenty,North Island,-38.1178,176.2514,,Rotorua
3010,Whakarewarewa,Bay of Plenty,North Island,-38.1178,176.2514,,Rotorua
3015,Fairy Springs,Bay of Plenty,North Island,-38.1483,176.2067,,Rotorua
3015,Fordlands,Bay of Plenty,North Island,-38.1483,176.2067,,Rotorua
3015,Hillcrest,Bay of Plenty,North Island,-38.1483,176.2067,,Rotorua
3015,Mangakakahi,Bay of Plenty,North Island,-38.1483,176.2067,,Rotorua
3015,Ngongotaha Valley,Bay of Plenty,North Island,-38.1483,176.2067,,Rotorua
3015,Pukehangi,Bay of Plenty,North Island,-38.1483,176.2067,,Rotorua
3015,Rotorua,Bay of Plenty,North Island,-38.1483,176.2067,,Rotorua
3015,Selwyn Heights,Bay of Plenty,North Island,-38.1483,176.2067,,Rotorua
3015,Springfield,Bay of Plenty,North Island,-38.1483,176.2067,,Rotorua
3015,Sunnybrook,Bay of Plenty,North Island,-38.1483,176.2067,,Rotorua District
3015,Tihoitonga,Bay of Plenty,North Island,-38.1483,176.2067,,Rotorua
3015,West Brook,Bay of Plenty,North Island,-38.1483,176.2067,,Rotorua
3015,Western Heights,Bay of Plenty,North Island,-38.1483,176.2067,,Rotorua
3020,Mamaku,Bay of Plenty,North Island,-38.0956,176.0756,,Rotorua District
3025,Murupara,Bay of Plenty,North Island,-38.4571,176.709,,Whakatane District
3040,Ngapuna,Bay of Plenty,North Island,-38.1377,176.2507,,Rotorua District
3041,Ngongotaha,Bay of Plenty,North Island,-38.0805,176.2124,,Rotorua District
3042,Owhata,Bay of Plenty,North Island,-38.1345,176.2952,,Rotorua District
3043,Whakarewarewa,Bay of Plenty,North Island,-38.1592,176.2567,,Rotorua District
3044,Glenholme,Bay of Plenty,North Island,-38.1448,176.2375,,Rotorua District
3045,Ngapuna,Bay of Plenty,North Island,-38.14,176.2516,,Rotorua District
3046,Koutu,Bay of Plenty,North Island,-38.1294,176.2337,,Rotorua District
3047,Mangakakahi,Bay of Plenty,North Island,-38.1291,176.2195,,Rotorua District
3048,Tihiotonga,Bay of Plenty,North Island,-38.1602,176.2355,,Rotorua District
3049,Mamaku,Bay of Plenty,North Island,-38.0953,176.0768,,Rotorua District
3060,Reporoa,Waikato,North Island,-38.436,176.3411,,Rotorua District
3062,Murupara,Bay of Plenty,North Island,-38.4562,176.7041,,Whakatane District
3072,Tarukenga,Waikato,North Island,-38.062,176.1258,,South Waikato District
3073,Waimangu,Waikato,North Island,-38.2904,176.4731,,Rotorua District
3074,Tikitere,Bay of Plenty,North Island,-38.0913,176.4142,,Rotorua District
3076,Punaroma,Bay of Plenty,North Island,-38.1809,176.362,,Rotorua District
3077,Guthrie,Bay of Plenty,North Island,-38.32,176.2239,,Rotorua District
3078,Atiamuri,Waikato,North Island,-38.4262,175.9947,,South Waikato District
3079,Ruatahuna,Bay of Plenty,North Island,-38.5567,176.8892,,Whakatane District
3081,Tahorakui,Waikato,North Island,-38.6353,176.4422,,Taupo District
3083,Tahorakui,Waikato,North Island,-38.4805,176.2263,,Rotorua District
3110,Bellevue,Bay of Plenty,North Island,-37.6686,176.2664,,Tauranga
3110,Bethlehem,Bay of Plenty,North Island,-37.6686,176.2664,,Tauranga
3110,Brookfield,Bay of Plenty,North Island,-37.6686,176.2664,,Tauranga
3110,Judea,Bay of Plenty,North Island,-37.6686,176.2664,,Tauranga
3110,Matapihi,Bay of Plenty,North Island,-37.6686,176.2664,,Tauranga
3110,Matua,Bay of Plenty,North Island,-37.6686,176.2664,,Tauranga
3110,Motiti Island,Bay of Plenty,North Island,-37.6686,176.2664,,Tauranga
3110,Omanu Beach,Bay of Plenty,North Island,-37.6686,176.2664,,Tauranga City
3110,Otumoetai,Bay of Plenty,North Island,-37.6686,176.2664,,Tauranga
3110,Tauranga,Bay of Plenty,North Island,-37.6686,176.2664,,Tauranga
3110,Tauriko,Bay of Plenty,North Island,-37.6686,176.2664,,Tauranga
3112,Gate Pa,Bay of Plenty,North Island,-37.7273,176.1538,,Tauranga
3112,Greerton,Bay of Plenty,North Island,-37.7273,176.1538,,Tauranga
3112,Hairini,Bay of Plenty,North Island,-37.7273,176.1538,,Tauranga City
3112,Maungatapu,Bay of Plenty,North Island,-37.7273,176.1538,,Tauranga
3112,Parkvale,Bay of Plenty,North Island,-37.7273,176.1538,,Tauranga
3112,Poike,Bay of Plenty,North Island,-37.7273,176.1538,,Tauranga
3112,Pyes Pa,Bay of Plenty,North Island,-37.7273,176.1538,,Tauranga
3112,Tauranga South,Bay of Plenty,North Island,-37.7273,176.1538,,Tauranga
3112,Welcome Bay,Bay of Plenty,North Island,-37.7273,176.1538,,Tauranga
3114,Omokoroa,Bay of Plenty,North Island,-37.6348,176.0467,,Western Bay of Plenty
3114,Omokoroa Beach,Bay of Plenty,North Island,-37.6348,176.0467,,Western Bay of Plenty District
3116,Mt Maunganui,Bay of Plenty,North Island,-37.6536,176.2044,,Tauranga
3116,Omanu,Bay of Plenty,North Island,-37.6536,176.2044,,Tauranga City
3118,Kairua,Bay of Plenty,North Island,-37.7146,176.3294,,Tauranga
3118,Papamoa Beach,Bay of Plenty,North Island,-37.7146,176.3294,,Tauranga City
3119,Te Puke,Bay of Plenty,North Island,-37.7774,176.3267,,Western Bay of Plenty District
3120,Coastlands,Bay of Plenty,North Island,-37.9555,176.9225,,Whakatane
3120,Edgecumbe,Bay of Plenty,North Island,-37.9555,176.9225,,Whakatane
3120,Maraetotara,Bay of Plenty,North Island,-37.9555,176.9225,,Whakatane
3120,Poroporo,Bay of Plenty,North Island,-37.9555,176.9225,,Whakatane District
3120,Whakatane,Bay of Plenty,North Island,-37.9555,176.9225,,Whakatane
3121,Ohope,Bay of Plenty,North Island,-37.97,177.084,,Whakatane
3121,Ohope Beach,Bay of Plenty,North Island,-37.97,177.084,,Whakatane District
3122,Opotiki,Bay of Plenty,North Island,-38.0138,177.2788,,Opotiki District
3122,Otara,Bay of Plenty,North Island,-38.0138,177.2788,,Opotiki
3122,Tirohanga,Bay of Plenty,North Island,-38.0138,177.2788,,Opotiki
3122,Waiotahi,Bay of Plenty,North Island,-38.0138,177.2788,,Opotiki
3123,Taneatua,Bay of Plenty,North Island,-38.0646,177.0066,,Whakatane District
3127,Kawerau,Bay of Plenty,North Island,-38.0905,176.6964,,Kawerau District
3129,Katikati,Bay of Plenty,North Island,-37.5499,175.9175,,Western Bay of Plenty District
3140,Tauranga,Bay of Plenty,North Island,-37.6934,176.1622,,Western Bay of Plenty District
3141,Tauranga,Bay of Plenty,North Island,-37.685,176.1682,,Tauranga City
3142,Greerton,Bay of Plenty,North Island,-37.7267,176.1332,,Tauranga City
3143,Tauranga,Bay of Plenty,North Island,-37.6739,176.1649,,Tauranga City
3144,Tauranga,Bay of Plenty,North Island,-37.6982,176.1597,,Tauranga City
3145,Otumoetai,Bay of Plenty,North Island,-37.6684,176.1405,,Tauranga City
3146,Judea,Bay of Plenty,North Island,-37.6898,176.1352,,Tauranga City
3147,Bethlehem,Bay of Plenty,North Island,-37.6959,176.1094,,Tauranga City
3148,Hairini,Bay of Plenty,North Island,-37.7162,176.1793,,Tauranga City
3149,Omanu,Bay of Plenty,North Island,-37.6553,176.2004,,Tauranga City
3150,Mount Maunganui,Bay of Plenty,North Island,-37.6381,176.1836,,Tauranga City
3151,Kairua,Bay of Plenty,North Island,-37.7006,176.2838,,Tauranga City
3152,Omanu Beach,Bay of Plenty,North Island,-37.676,176.223,,Tauranga City
3153,Te Puke,Bay of Plenty,North Island,-37.7849,176.3275,,Western Bay of Plenty District
3154,Omokoroa Beach,Bay of Plenty,North Island,-37.6326,176.0523,,Western Bay of Plenty District
3158,Whakatane,Bay of Plenty,North Island,-37.9524,176.9959,,Whakatane District
3159,Poroporo,Bay of Plenty,North Island,-37.9621,176.9819,,Whakatane District
3160,Edgecumbe,Bay of Plenty,North Island,-37.9752,176.8264,,Whakatane District
3161,Ohope Beach,Bay of Plenty,North Island,-37.9642,177.0361,,Whakatane District
3162,Opotiki,Bay of Plenty,North Island,-38.0057,177.2847,,Opotiki District
3163,Taneatua,Bay of Plenty,North Island,-38.0653,177.0034,,Whakatane District
3164,Waimana,Bay of Plenty,North Island,-38.1431,177.0767,,Whakatane District
3166,Katikati,Bay of Plenty,North Island,-37.5528,175.9174,,Western Bay of Plenty District
3167,Te Teko,Bay of Plenty,North Island,-38.0362,176.7976,,Whakatane District
3168,Matata,Bay of Plenty,North Island,-37.8886,176.7586,,Whakatane District
3169,Kawerau,Bay of Plenty,North Island,-38.0867,176.7012,,Kawerau District
3171,Lower Kaimai,Bay of Plenty,North Island,-37.8097,176.025,,Tauranga City
3172,Omokoroa Beach,Bay of Plenty,North Island,-37.5886,176.0675,,Western Bay of Plenty District
3173,Oropi,Bay of Plenty,North Island,-37.8386,176.1706,,Western Bay of Plenty District
3175,Upper Papamoa,Bay of Plenty,North Island,-37.7412,176.2216,,Tauranga City
3176,Whakamarama,Bay of Plenty,North Island,-37.7138,176.0076,,Western Bay of Plenty District
3177,Athenree,Bay of Plenty,North Island,-37.4922,175.9169,,Western Bay of Plenty District
3178,Katikati,Bay of Plenty,North Island,-37.5826,175.8646,,Western Bay of Plenty District
3182,Te Puke,Bay of Plenty,North Island,-37.8464,176.2896,,Western Bay of Plenty District
3183,Upper Papamoa,Bay of Plenty,North Island,-37.8104,176.2666,,Western Bay of Plenty District
3186,Ohinepanea,Bay of Plenty,North Island,-37.8915,176.4704,,Western Bay of Plenty District
3187,Papamoa,Bay of Plenty,North Island,-37.74,176.3135,,Tauranga City
3188,Ngawaro,Bay of Plenty,North Island,-37.8957,176.1919,,Western Bay of Plenty District
3189,Paengaroa,Bay of Plenty,North Island,-37.8464,176.413,,Western Bay of Plenty District
3191,Otangihaku,Bay of Plenty,North Island,-38.0614,176.9708,,Whakatane District
3192,Kawerau,Bay of Plenty,North Island,-38.1218,176.7807,,Kawerau District
3193,Edgecumbe,Bay of Plenty,North Island,-37.963,176.8355,,Whakatane District
3194,Awakaponga,Bay of Plenty,North Island,-37.9481,176.7675,,Western Bay of Plenty District
3196,Waimana,Bay of Plenty,North Island,-38.2072,177.1206,,Whakatane District
3197,Toatoa,Bay of Plenty,North Island,-38.172,177.4113,,Opotiki District
3198,Waimana,Bay of Plenty,North Island,-38.1269,177.1553,,Opotiki District
3199,Omaio,Gisborne,North Island,-37.8634,177.8537,,Gisborne District
3200,Avalon Industrial,Waikato,North Island,-37.761,175.2474,,Hamilton
3200,Beerescourt,Waikato,North Island,-37.761,175.2474,,Hamilton
3200,Forest Lake,Waikato,North Island,-37.761,175.2474,,Hamilton
3200,Grandview Heights,Waikato,North Island,-37.761,175.2474,,Hamilton
3200,Maeroa,Waikato,North Island,-37.761,175.2474,,Hamilton
3200,Nawton,Waikato,North Island,-37.761,175.2474,,Hamilton
3200,Northgate Industrial,Waikato,North Island,-37.761,175.2474,,Hamilton
3200,Pukete,Waikato,North Island,-37.761,175.2474,,Hamilton
3200,Pukete Industrial,Waikato,North Island,-37.761,175.2474,,Hamilton
3200,St Andrews,Waikato,North Island,-37.761,175.2474,,Hamilton
3200,Te Rapa,Waikato,North Island,-37.761,175.2474,,Hamilton City
3200,Te Rapa Park,Waikato,North Island,-37.761,175.2474,,Hamilton
3200,Te Rapa Straight,Waikato,North Island,-37.761,175.2474,,Hamilton
3200,Western Heights,Waikato,North Island,-37.761,175.2474,,Hamilton
3200,Whitiora,Waikato,North Island,-37.761,175.2474,,Hamilton
3204,Dinsdale,Waikato,North Island,-37.7974,175.2604,,Hamilton
3204,Frankton,Waikato,North Island,-37.7974,175.2604,,Hamilton
3204,Frankton Junction,Waikato,North Island,-37.7974,175.2604,,Hamilton City
3204,Hamilton Central,Waikato,North Island,-37.7974,175.2604,,Hamilton
3204,Hamilton Lake,Waikato,North Island,-37.7974,175.2604,,Hamilton
3204,Waikato Hospital,Waikato,North Island,-37.7974,175.2604,,Hamilton
3206,Bader,Waikato,North Island,-37.8198,175.2865,,Hamilton
3206,Deanwell,Waikato,North Island,-37.8198,175.2865,,Hamilton
3206,Fitzroy,Waikato,North Island,-37.8198,175.2865,,Hamilton
3206,Glenview,Waikato,North Island,-37.8198,175.2865,,Hamilton
3206,Melville,Waikato,North Island,-37.8198,175.2865,,Hamilton City
3206,Tamahere,Waikato,North Island,-37.8198,175.2865,,Hamilton
3210,Beerescourt,Waikato,North Island,-37.7462,175.2707,,Waikato
3210,Chartwell,Waikato,North Island,-37.7462,175.2707,,Waikato
3210,Chedworth,Waikato,North Island,-37.7462,175.2707,,Waikato
3210,Claudelands,Waikato,North Island,-37.7462,175.2707,,Waikato District
3210,Flagstaff,Waikato,North Island,-37.7462,175.2707,,Waikato
3210,Harrowfield,Waikato,North Island,-37.7462,175.2707,,Waikato
3210,Huntingdon,Waikato,North Island,-37.7462,175.2707,,Waikato
3210,North Huntingdon,Waikato,North Island,-37.7462,175.2707,,Waikato
3210,Puketaha,Waikato,North Island,-37.7462,175.2707,,Waikato
3210,Queenwood,Waikato,North Island,-37.7462,175.2707,,Waikato
3210,Rototuna,Waikato,North Island,-37.7462,175.2707,,Waikato
3210,Rototuna North,Waikato,North Island,-37.7462,175.2707,,Waikato
3210,St Andrews,Waikato,North Island,-37.7462,175.2707,,Waikato
3214,Claudelands,Waikato,North Island,-37.7708,175.2985,,Hamilton
3214,Enderley,Waikato,North Island,-37.7708,175.2985,,Hamilton
3214,Fairfield,Waikato,North Island,-37.7708,175.2985,,Hamilton
3214,Fairview Downs,Waikato,North Island,-37.7708,175.2985,,Hamilton
3214,Hamilton,Waikato,North Island,-37.7708,175.2985,,Hamilton City
3214,Hillcrest,Waikato,North Island,-37.7708,175.2985,,Hamilton
3216,Hamilton East,Waikato,North Island,-37.7961,175.3088,,Hamilton City
3216,Hillcrest,Waikato,North Island,-37.7961,175.3088,,Hamilton
3216,Riverlea,Waikato,North Island,-37.7961,175.3088,,Hamilton
3216,Silverdale,Waikato,North Island,-37.7961,175.3088,,Hamilton
3216,Tamahere,Waikato,North Island,-37.7961,175.3088,,Hamilton
3218,Temple View,Waikato,North Island,-37.8198,175.2282,,Hamilton City
3225,Raglan,Waikato,North Island,-37.8109,174.8709,,Waikato District
3240,Hamilton West,Waikato,North Island,-37.7849,175.276,,Hamilton City
3241,Te Rapa,Waikato,North Island,-37.7571,175.2475,,Hamilton City
3242,Hamilton West,Waikato,North Island,-37.7881,175.2644,,Hamilton City
3243,Frankton Junction,Waikato,North Island,-37.7955,175.2458,,Hamilton City
3244,Hamilton,Waikato,North Island,-37.7852,175.2802,,Hamilton City
3245,Melville,Waikato,North Island,-37.8175,175.2824,,Hamilton City
3246,Melville,Waikato,North Island,-37.8224,175.2876,,Hamilton City
3247,Hamilton East,Waikato,North Island,-37.7914,175.2944,,Hamilton City
3248,Claudelands,Waikato,North Island,-37.7514,175.2799,,Hamilton City
3249,Te Rapa,Waikato,North Island,-37.738,175.253,,Hamilton City
3251,Hamilton East,Waikato,North Island,-37.7985,175.3157,,Hamilton City
3252,Claudelands,Waikato,North Island,-37.7723,175.2934,,Hamilton City
3253,Newstead,Waikato,North Island,-37.8017,175.3223,,Hamilton City
3254,Newstead,Waikato,North Island,-37.7899,175.3261,,Hamilton City
3255,Hamilton East,Waikato,North Island,-37.7876,175.3166,,Hamilton City
3256,Claudelands,Waikato,North Island,-37.729,175.2734,,Hamilton City
3257,Claudelands,Waikato,North Island,-37.7651,175.2534,,Hamilton City
3260,Matangi,Waikato,North Island,-37.8043,175.395,,Waikato District
3261,Whatawhata,Waikato,North Island,-37.7974,175.1535,,Waikato District
3262,Horotiu,Waikato,North Island,-37.6941,175.19,,Waikato District
3263,Te Kowhai,Waikato,North Island,-37.7432,175.1526,,Waikato District
3264,Gordonton,Waikato,North Island,-37.6696,175.3041,,Waikato District
3265,Raglan,Waikato,North Island,-37.8003,174.87,,Waikato District
3266,Te Uku,Waikato,North Island,-37.8289,174.957,,Waikato District
3281,Gordonton,Waikato,North Island,-37.6905,175.3075,,Waikato District
3282,Rukuhia,Waikato,North Island,-37.843,175.2852,,Waipa District
3283,Tamahere,Waikato,North Island,-37.8514,175.3865,,Waikato District
3284,Eureka,Waikato,North Island,-37.7576,175.3961,,Waikato District
3285,Aramiro,Waikato,North Island,-37.905,175.0829,,Waikato District
3288,Te Kowhai,Waikato,North Island,-37.7355,175.174,,Waikato District
3289,Whatawhata,Waikato,North Island,-37.7794,175.136,,Waikato District
3290,Temple View,Waikato,North Island,-37.8461,175.1942,,Hamilton City
3293,Waitetuna,Waikato,North Island,-37.8177,175.0743,,Waikato District
3295,Te Uku,Waikato,North Island,-37.8322,174.9795,,Waikato District
3296,Ruapuke,Waikato,North Island,-37.8766,174.8145,,Waikato District
3297,Raglan,Waikato,North Island,-37.8324,174.8054,,Waikato District
3300,Morrinsville,Waikato,North Island,-37.652,175.5293,,Matamata-Piako District
3310,Waitoa,Waikato,North Island,-37.6,175.6334,,Matamata-Piako District
3320,Te Aroha,Waikato,North Island,-37.5391,175.7098,,Matamata-Piako District
3330,Acacia Bay,Waikato,North Island,-38.7037,176.0588,,Taupo
3330,Nukuhau,Waikato,North Island,-38.7037,176.0588,,Taupo
3330,Taupo,Waikato,North Island,-38.7037,176.0588,,Taupo
3330,Wharewaka,Waikato,North Island,-38.7037,176.0588,,Taupo District
3332,Wairakei,Waikato,North Island,-38.6195,176.103,,Taupo District
3334,Tokaanu,Waikato,North Island,-39.0028,175.8069,,Taupo
3334,Turangi,Waikato,North Island,-39.0028,175.8069,,Taupo District
3340,Morrinsville,Waikato,North Island,-37.6577,175.5275,,Matamata-Piako District
3341,Waitoa,Waikato,North Island,-37.6015,175.6281,,Matamata-Piako District
3342,Te Aroha,Waikato,North Island,-37.5429,175.7124,,Matamata-Piako District
3343,Te Aroha,Waikato,North Island,-37.5523,175.7039,,Matamata-Piako District
3351,Taupo,Waikato,North Island,-38.6868,176.0718,,Taupo District
3352,Taupo,Waikato,North Island,-38.6828,176.0709,,Taupo District
3353,Turangi,Waikato,North Island,-38.9887,175.8087,,Taupo District
3360,Tarawera,Waikato,North Island,-39.0266,176.5734,,Taupo District
3371,Kiwitahi,Waikato,North Island,-37.7378,175.5598,,Matamata-Piako District
3372,Motumaoho,Waikato,North Island,-37.6875,175.4797,,Matamata-Piako District
3373,Tahuna,Waikato,North Island,-37.4989,175.4546,,Matamata-Piako District
3374,Te Puninga,Waikato,North Island,-37.5777,175.5857,,Matamata-Piako District
3375,Morrinsville,Waikato,North Island,-37.602,175.445,,Waikato District
3377,Oruanui,Waikato,North Island,-38.6226,176.0015,,Taupo District
3378,Waipahihi,Waikato,North Island,-38.7041,176.1355,,Taupo District
3379,Rangitaiki,Hawke's Bay,North Island,-38.887,176.3747,,Taupo District
3380,Waitoa,Waikato,North Island,-37.5909,175.6224,,Matamata-Piako District
3381,Kuratau,Waikato,North Island,-38.8184,175.7096,,Taupo District
3382,Turangi,Waikato,North Island,-39.0284,175.9471,,Taupo District
3391,Manawaru,Waikato,North Island,-37.6407,175.7962,,Matamata-Piako District
3392,Mangaiti,Waikato,North Island,-37.5085,175.6909,,Matamata-Piako District
3393,Mangaiti,Waikato,North Island,-37.4947,175.6061,,Matamata-Piako District
3400,Matamata,Waikato,North Island,-37.8152,175.7832,,Matamata-Piako District
3401,Tamihana,Waikato,North Island,-37.759,175.7491,,Matamata-Piako
3401,Waharoa,Waikato,North Island,-37.759,175.7491,,Matamata-Piako District
3410,North Putaruru,Waikato,North Island,-37.9878,175.7524,,South Waikato
3410,Okoroire,Waikato,North Island,-37.9878,175.7524,,South Waikato
3410,Piarere,Waikato,North Island,-37.9878,175.7524,,South Waikato
3410,Tirau,Waikato,North Island,-37.9878,175.7524,,South Waikato District
3411,Lichfield,Waikato,North Island,-38.0505,175.7793,,South Waikato
3411,Putaruru,Waikato,North Island,-38.0505,175.7793,,South Waikato District
3415,Arapuni,Waikato,North Island,-38.0715,175.6498,,South Waikato District
3420,Tokoroa,Waikato,North Island,-38.2229,175.8685,,South Waikato District
3421,Mangakino,Waikato,North Island,-38.3696,175.7737,,Taupo District
3432,Leamington,Waikato,North Island,-37.9096,175.4781,,Waipa District
3434,Cambridge,Waikato,North Island,-37.8866,175.469,,Waipa
3434,Leamington,Waikato,North Island,-37.8866,175.469,,Waipa District
3434,Tamahere,Waikato,North Island,-37.8866,175.469,,Waipa
3440,Matamata,Waikato,North Island,-37.8111,175.7725,,Matamata-Piako District
3441,Waharoa,Waikato,North Island,-37.7591,175.7525,,Matamata-Piako District
3442,Tirau,Waikato,North Island,-37.9782,175.7568,,South Waikato District
3443,Putaruru,Waikato,North Island,-38.0516,175.7788,,South Waikato District
3444,Tokoroa,Waikato,North Island,-38.2176,175.8717,,South Waikato District
3445,Mangakino,Waikato,North Island,-38.3704,175.774,,Taupo District
3450,Leamington,Waikato,North Island,-37.895,175.4719,,Waipa District
3451,Hautapu,Waikato,North Island,-37.8605,175.4531,,Waipa District
3471,Okauia,Waikato,North Island,-37.7686,175.8421,,Matamata-Piako District
3472,Hinuera,Waikato,North Island,-37.8526,175.6993,,Matamata-Piako District
3473,Kaimai,Waikato,North Island,-37.8507,175.8962,,Matamata-Piako District
3474,Waharoa,Waikato,North Island,-37.7272,175.7514,,Matamata-Piako District
3475,Walton,Waikato,North Island,-37.7656,175.6598,,Matamata-Piako District
3481,Te Waotu,Waikato,North Island,-38.1162,175.6938,,South Waikato District
3482,Ngatira,Waikato,North Island,-38.1275,175.8195,,South Waikato District
3483,Putaruru,Waikato,North Island,-38.0474,175.8289,,South Waikato District
3484,Tirau,Waikato,North Island,-37.9592,175.7208,,Matamata-Piako District
3485,Okoroire,Waikato,North Island,-37.9758,175.8676,,Matamata-Piako District
3491,Kinleith,Waikato,North Island,-38.2644,175.9126,,South Waikato District
3492,Mangakino,Waikato,North Island,-38.5067,175.696,,Otorohanga District
3493,Bruntwood,Waikato,North Island,-37.8344,175.4448,,Waikato District
3494,Pukeatua,Waikato,North Island,-37.9944,175.5804,,Waipa District
3495,Leamington,Waikato,North Island,-37.9615,175.4494,,Waipa District
3496,Whitehall,Waikato,North Island,-37.8541,175.5666,,Matamata-Piako District
3500,Thames,Waikato,North Island,-37.1355,175.5456,,Thames-Coromandel District
3503,Ngatea,Waikato,North Island,-37.2735,175.4893,,Hauraki District
3503,Turua,Waikato,North Island,-37.2735,175.4893,,Hauraki
3506,Coromandel,Waikato,North Island,-36.6993,175.6601,,Thames-Coromandel
3506,Preece Point,Waikato,North Island,-36.6993,175.6601,,Thames-Coromandel
3506,Te Rerenga,Waikato,North Island,-36.6993,175.6601,,Thames-Coromandel
3506,Whangapoua,Waikato,North Island,-36.6993,175.6601,,Thames-Coromandel District
3508,Tairua,Waikato,North Island,-36.9977,175.848,,Thames-Coromandel District
3510,Whitianga,Waikato,North Island,-36.817,175.6913,,Thames-Coromandel District
3540,Thames,Waikato,North Island,-37.139,175.542,,Thames-Coromandel District
3541,Ngatea,Waikato,North Island,-37.2763,175.4971,,Hauraki District
3542,Whitianga,Waikato,North Island,-36.8358,175.7045,,Thames-Coromandel District
3543,Coromandel,Waikato,North Island,-36.7586,175.4984,,Thames-Coromandel District
3544,Tairua,Waikato,North Island,-37.002,175.8482,,Thames-Coromandel District
3545,Turua,Waikato,North Island,-37.2378,175.5664,,Hauraki District
3546,Pauanui,Waikato,North Island,-37.0206,175.8587,,Thames-Coromandel District
3547,Colville,Waikato,North Island,-36.6344,175.4767,,Thames-Coromandel District
3574,Turua,Waikato,North Island,-37.2269,175.5535,,Hauraki District
3575,Tapu,Waikato,North Island,-36.9856,175.4922,,Thames-Coromandel District
3576,Waitakaruru,Waikato,North Island,-37.2732,175.3863,,Hauraki District
3577,Parawai,Waikato,North Island,-37.131,175.6008,,Thames-Coromandel District
3578,Nevesville,Waikato,North Island,-37.1958,175.6659,,Thames-Coromandel District
3579,Hikuai,Waikato,North Island,-37.0865,175.8125,,Thames-Coromandel District
3581,Ahimia,Waikato,North Island,-36.8134,175.4844,,Thames-Coromandel District
3582,Te Rerenga,Waikato,North Island,-36.7533,175.6141,,Thames-Coromandel District
3583,Kennedys Bay,Waikato,North Island,-36.6805,175.5537,,Thames-Coromandel District
3584,Colville,Waikato,North Island,-36.6061,175.4532,,Area Outside Territorial Authority
3591,Coroglen,Waikato,North Island,-36.8959,175.7144,,Thames-Coromandel District
3592,Coroglen,Waikato,North Island,-36.9317,175.6572,,Thames-Coromandel District
3597,Ngatea,Waikato,North Island,-37.2926,175.4673,,Hauraki District
3600,Karangahake,Waikato,North Island,-37.3735,175.6712,,Hauraki
3600,Paeroa,Waikato,North Island,-37.3735,175.6712,,Hauraki District
3610,Waihi,Waikato,North Island,-37.3865,175.8446,,Hauraki District
3611,Athenree,Bay of Plenty,North Island,-37.4039,175.9432,,Western Bay of Plenty
3611,Waihi Beach,Bay of Plenty,North Island,-37.4039,175.9432,,Western Bay of Plenty District
3620,Whangamata,Waikato,North Island,-37.1974,175.869,,Thames-Coromandel District
3640,Paeroa,Waikato,North Island,-37.381,175.671,,Hauraki District
3641,Waihi,Waikato,North Island,-37.3923,175.8413,,Hauraki District
3642,Waihi Beach,Bay of Plenty,North Island,-37.4117,175.9424,,Western Bay of Plenty District
3643,Whangamata,Waikato,North Island,-37.2071,175.8715,,Thames-Coromandel District
3671,Netherton,Waikato,North Island,-37.3374,175.585,,Hauraki District
3672,Netherton,Waikato,North Island,-37.3715,175.6157,,Hauraki District
3673,Tirohia,Waikato,North Island,-37.4191,175.6648,,Matamata-Piako District
3674,Komata,Waikato,North Island,-37.3376,175.7408,,Hauraki District
3681,Waihi,Waikato,North Island,-37.3714,175.8798,,Hauraki District
3682,Waihi,Waikato,North Island,-37.4057,175.8178,,Hauraki District
3691,Whangamata,Waikato,North Island,-37.1833,175.8231,,Hauraki District
3700,Huntly,Waikato,North Island,-37.5596,175.1583,,Waikato
3700,Starrtown,Waikato,North Island,-37.5596,175.1583,,Waikato District
3710,Te Kauwhata,Waikato,North Island,-37.4039,175.1466,,Waikato District
3720,Ngaruawahia,Waikato,North Island,-37.6691,175.1522,,Waikato District
3721,Taupiri,Waikato,North Island,-37.6191,175.1894,,Waikato District
3740,Starrtown,Waikato,North Island,-37.558,175.1589,,Waikato District
3741,Te Kauwhata,Waikato,North Island,-37.4039,175.144,,Waikato District
3742,Ngaruawahia,Waikato,North Island,-37.6659,175.1482,,Waikato District
3771,Pukekapia,Waikato,North Island,-37.5358,175.1096,,Waikato District
3772,Ruawaro,Waikato,North Island,-37.5172,175.0108,,Waikato District
3781,Waerenga,Waikato,North Island,-37.3573,175.2623,,Waikato District
3782,Whangamarino,Waikato,North Island,-37.3589,175.1326,,Waikato District
3784,Waiterimu,Waikato,North Island,-37.4617,175.2925,,Matamata-Piako District
3791,Komakorau,Waikato,North Island,-37.6355,175.2398,,Waikato District
3792,Orini,Waikato,North Island,-37.5777,175.2696,,Waikato District
3793,Waingaro,Waikato,North Island,-37.7088,174.9803,,Waikato District
3794,Pepepe,Waikato,North Island,-37.6266,174.9202,,Waikato District
3800,Kihikihi,Waikato,North Island,-38.0195,175.3305,,Waipa
3800,Te Awamutu,Waikato,North Island,-38.0195,175.3305,,Waipa District
3802,Pirongia,Waikato,North Island,-37.9914,175.2051,,Waipa District
3803,Ohaupo,Waikato,North Island,-37.9178,175.3066,,Waipa District
3840,Te Awamutu,Waikato,North Island,-38.0104,175.3237,,Waipa District
3841,Kihikihi,Waikato,North Island,-38.0377,175.3454,,Waipa District
3843,Kawhia,Waikato,North Island,-38.0639,174.8229,,Otorohanga District
3872,Wharepuhunga,Waikato,North Island,-38.0733,175.4515,,Waipa District
3873,Te Kawa,Waikato,North Island,-38.138,175.3534,,Waipa District
3874,Matapara,Waikato,North Island,-38.2716,175.5108,,Otorohanga District
3875,Te Mawhai,Waikato,North Island,-38.0405,175.29,,Waipa District
3876,Pirongia,Waikato,North Island,-38.0036,175.1763,,Waipa District
3877,Matapara,Waikato,North Island,-38.1874,175.538,,Waipa District
3878,Hauturu,Waikato,North Island,-38.0811,174.9754,,Otorohanga District
3879,Kihikihi,Waikato,North Island,-38.0134,175.4174,,Waipa District
3880,Pukeatua,Waikato,North Island,-38.1016,175.5796,,Waipa District
3881,Ohaupo,Waikato,North Island,-37.9081,175.3486,,Waipa District
3882,Rukuhia,Waikato,North Island,-37.8832,175.2463,,Waipa District
3883,Ngaroto,Waikato,North Island,-37.9539,175.2812,,Waipa District
3885,Oparau,Waikato,North Island,-38.0142,174.9774,,Otorohanga District
3886,Owhiro,Waikato,North Island,-38.153,174.9098,,Otorohanga District
3889,Kawhia,Waikato,North Island,-38.0416,174.8314,,Otorohanga District
3894,Te Papatapu,Waikato,North Island,-37.9576,174.8386,,Waikato District
3895,Moerangi,Waikato,North Island,-37.9508,174.9124,,Waikato District
3900,Otorohanga,Waikato,North Island,-38.1807,175.223,,Otorohanga District
3910,Te Kuiti,Waikato,North Island,-38.3353,175.1654,,Waitomo District
3912,Piopio,Waikato,North Island,-38.4671,175.0126,,Waitomo District
3920,Taumarunui,Manawatu-Wanganui,North Island,-38.8765,175.2729,,Ruapehu District
3924,Manunui,Manawatu-Wanganui,North Island,-38.8965,175.3202,,Ruapehu District
3926,Ohura,Manawatu-Wanganui,North Island,-38.8467,174.9669,,Ruapehu District
3940,Otorohanga,Waikato,North Island,-38.1864,175.2115,,Otorohanga District
3941,Te Kuiti,Waikato,North Island,-38.3344,175.1656,,Waitomo District
3942,Piopio,Waikato,North Island,-38.4665,175.016,,Waitomo District
3943,Hangatiki,Waikato,North Island,-38.2521,175.1787,,Waitomo District
3944,Benneydale,Waikato,North Island,-38.5204,175.3638,,Waitomo District
3945,Mahoenui,Waikato,North Island,-38.5784,174.8403,,Waitomo District
3946,Taumarunui,Manawatu-Wanganui,North Island,-38.8844,175.2639,,Ruapehu District
3947,Ohura,Manawatu-Wanganui,North Island,-38.8418,174.9827,,Ruapehu District
3948,National Park,Manawatu-Wanganui,North Island,-39.177,175.4022,,Ruapehu District
3949,Tongariro,Manawatu-Wanganui,North Island,-39.046,175.6038,,Ruapehu District
3970,Wairere Falls,Waikato,North Island,-38.5064,174.971,,Waitomo District
3971,Waitanguru,Waikato,North Island,-38.402,174.9066,,Waitomo District
3972,Maihiihi,Waikato,North Island,-38.2227,175.3551,,Otorohanga District
3973,Honikiwi,Waikato,North Island,-38.1305,175.1012,,Otorohanga District
3974,Te Kawa,Waikato,North Island,-38.1444,175.2717,,Otorohanga District
3975,Maihiihi,Waikato,North Island,-38.2977,175.3482,,Otorohanga District
3976,Hangatiki,Waikato,North Island,-38.2536,175.2194,,Otorohanga District
3977,Hangatiki,Waikato,North Island,-38.2342,175.1494,,Waitomo District
3978,Mahoenui,Waikato,North Island,-38.5532,174.8526,,Waitomo District
3979,Waitewhenua,Manawatu-Wanganui,North Island,-38.6529,174.9724,,Ruapehu District
3980,Tatu,Manawatu-Wanganui,North Island,-38.8981,174.9306,,Stratford District
3981,Arapae,Waikato,North Island,-38.4221,175.1026,,Waitomo District
3982,Puketutu,Waikato,North Island,-38.3574,175.2779,,Waitomo District
3983,Kopaki,Waikato,North Island,-38.4905,175.2096,,Waitomo District
3985,Waitanguru,Waikato,North Island,-38.4444,174.901,,Waitomo District
3986,Te Kuiti,Waikato,North Island,-38.2923,175.1961,,Otorohanga District
3987,Benneydale,Waikato,North Island,-38.4993,175.512,,Waitomo District
3988,Owhiro,Waikato,North Island,-38.2017,174.8979,,Waitomo District
3989,Oio,Manawatu-Wanganui,North Island,-39.0775,175.4805,,Ruapehu District
3990,Upper Ruatiti,Manawatu-Wanganui,North Island,-39.1517,175.2283,,Ruapehu District
3991,Aukopae,Manawatu-Wanganui,North Island,-38.9138,175.1103,,Ruapehu District
3992,Hikumutu,Manawatu-Wanganui,North Island,-38.9432,175.2684,,Ruapehu District
3993,Kirikau,Manawatu-Wanganui,North Island,-39.0204,175.1751,,Ruapehu District
3994,Ngapuke,Manawatu-Wanganui,North Island,-38.8637,175.4107,,Ruapehu District
3995,Matiere,Manawatu-Wanganui,North Island,-38.7469,175.0987,,Ruapehu District
3996,Okahukura,Manawatu-Wanganui,North Island,-38.8026,175.2329,,Ruapehu District
3997,Ongarue,Manawatu-Wanganui,North Island,-38.7362,175.3731,,Ruapehu District
3998,Waimiha,Manawatu-Wanganui,North Island,-38.6202,175.3978,,Ruapehu District
4010,Awapuni,Gisborne,North Island,-38.6673,178.0286,,Gisborne
4010,Elgin,Gisborne,North Island,-38.6673,178.0286,,Gisborne
4010,Gisborne,Gisborne,North Island,-38.6673,178.0286,,Gisborne
4010,Inner Kati,Gisborne,North Island,-38.6673,178.0286,,Gisborne
4010,Kaiti,Gisborne,North Island,-38.6673,178.0286,,Gisborne District
4010,Makaraka,Gisborne,North Island,-38.6673,178.0286,,Gisborne
4010,Mangapapa,Gisborne,North Island,-38.6673,178.0286,,Gisborne
4010,Matokitoki,Gisborne,North Island,-38.6673,178.0286,,Gisborne
4010,Okitu,Gisborne,North Island,-38.6673,178.0286,,Gisborne
4010,Outer Kaiti,Gisborne,North Island,-38.6673,178.0286,,Gisborne
4010,Riverdale,Gisborne,North Island,-38.6673,178.0286,,Gisborne
4010,Tamarau,Gisborne,North Island,-38.6673,178.0286,,Gisborne
4010,Te Hapara,Gisborne,North Island,-38.6673,178.0286,,Gisborne
4010,Wainui,Gisborne,North Island,-38.6673,178.0286,,Gisborne
4010,Whataupoko,Gisborne,North Island,-38.6673,178.0286,,Gisborne
4022,Te Karaka,Gisborne,North Island,-38.4678,177.866,,Gisborne District
4032,Ruatoria,Gisborne,North Island,-37.8926,178.32,,Gisborne District
4040,Kaiti,Gisborne,North Island,-38.6641,178.025,,Gisborne District
4041,Tamarau,Gisborne,North Island,-38.6751,178.0449,,Gisborne District
4042,Te Karaka,Gisborne,North Island,-38.4695,177.8638,,Gisborne District
4043,Ruatoria,Gisborne,North Island,-37.8902,178.3191,,Gisborne District
4044,Tiniroto,Gisborne,North Island,-38.7742,177.5665,,Gisborne District
4045,Patutahi,Gisborne,North Island,-38.624,177.8904,,Gisborne District
4046,Tolaga Bay,Gisborne,North Island,-38.3727,178.2971,,Gisborne District
4047,Tokomaru,Gisborne,North Island,-38.1303,178.315,,Gisborne District
4048,Te Puia,Gisborne,North Island,-38.0558,178.3065,,Gisborne District
4049,Rangitukia,Gisborne,North Island,-37.7963,178.4107,,Gisborne District
4050,Te Araroa,Gisborne,North Island,-37.6336,178.3694,,Gisborne District
4051,Matawai,Gisborne,North Island,-38.3576,177.5345,,Gisborne District
4052,Motu,Gisborne,North Island,-38.2569,177.548,,Gisborne District
4071,Waerengaahika,Gisborne,North Island,-38.576,177.9556,,Gisborne District
4072,Pehiri,Gisborne,North Island,-38.66,177.623,,Gisborne District
4073,Whangara,Gisborne,North Island,-38.5389,178.1478,,Gisborne District
4075,Rakauroa,Gisborne,North Island,-38.426,177.4494,,Gisborne District
4077,Tolaga Bay,Gisborne,North Island,-38.2809,178.1521,,Gisborne District
4078,Tiniroto,Gisborne,North Island,-38.8266,177.6647,,Gisborne District
4079,Tokomaru,Gisborne,North Island,-38.1207,178.1236,,Gisborne District
4081,Waitakaro,Gisborne,North Island,-37.9512,178.2583,,Gisborne District
4082,Ruatoria,Gisborne,North Island,-37.863,178.3902,,Gisborne District
4083,Pakihiroa,Gisborne,North Island,-37.8432,178.165,,Gisborne District
4086,Whakaangiangi,Gisborne,North Island,-37.7749,178.355,,Gisborne District
4087,Te Araroa,Gisborne,North Island,-37.6653,178.3229,,Gisborne District
4091,Ahititi,Gisborne,North Island,-38.365,177.9638,,Gisborne District
4092,Otoko,Gisborne,North Island,-38.3389,177.6316,,Gisborne District
4093,Te Karaka,Gisborne,North Island,-38.4817,177.8868,,Gisborne District
4094,Whatatutu,Gisborne,North Island,-38.3066,177.8006,,Gisborne District
4102,Clive,Hawke's Bay,North Island,-39.613,176.9451,,Hastings
4102,Haumoana,Hawke's Bay,North Island,-39.613,176.9451,,Hastings District
4102,Te Awanga,Hawke's Bay,North Island,-39.613,176.9451,,Hastings
4104,Bay View,Hawke's Bay,North Island,-39.4185,176.8765,,Napier
4104,Petane,Hawke's Bay,North Island,-39.4185,176.8765,,Napier City
4108,Frasertown,Hawke's Bay,North Island,-39.0278,177.4054,,Wairoa
4108,North Clyde,Hawke's Bay,North Island,-39.0278,177.4054,,Wairoa District
4108,Wairoa,Hawke's Bay,North Island,-39.0278,177.4054,,Wairoa
4110,Ahuriri,Hawke's Bay,North Island,-39.498,176.8799,,Napier
4110,Awatoto,Hawke's Bay,North Island,-39.498,176.8799,,Napier
4110,Bay View,Hawke's Bay,North Island,-39.498,176.8799,,Napier
4110,Bluff Hill,Hawke's Bay,North Island,-39.498,176.8799,,Napier
4110,Hospital Hill,Hawke's Bay,North Island,-39.498,176.8799,,Napier
4110,Maraenui,Hawke's Bay,North Island,-39.498,176.8799,,Napier
4110,Marewa,Hawke's Bay,North Island,-39.498,176.8799,,Napier
4110,Meeanee,Hawke's Bay,North Island,-39.498,176.8799,,Napier
4110,Napier South,Hawke's Bay,North Island,-39.498,176.8799,,Napier
4110,Onekawa,Hawke's Bay,North Island,-39.498,176.8799,,Napier City
4110,Onekawa Industrial,Hawke's Bay,North Island,-39.498,176.8799,,Napier
4110,Pandora,Hawke's Bay,North Island,-39.498,176.8799,,Napier
4110,Te Awa,Hawke's Bay,North Island,-39.498,176.8799,,Napier
4110,Westshore,Hawke's Bay,North Island,-39.498,176.8799,,Napier
4112,Greenmeadows,Hawke's Bay,North Island,-39.5268,176.8511,,Napier
4112,Jervoistown,Hawke's Bay,North Island,-39.5268,176.8511,,Napier
4112,Meeanee,Hawke's Bay,North Island,-39.5268,176.8511,,Napier
4112,Pirimai,Hawke's Bay,North Island,-39.5268,176.8511,,Napier
4112,Poraiti,Hawke's Bay,North Island,-39.5268,176.8511,,Napier
4112,Puk-kura,Hawke's Bay,North Island,-39.5268,176.8511,,Napier City
4112,Tamatea,Hawke's Bay,North Island,-39.5268,176.8511,,Napier
4112,Taradale,Hawke's Bay,North Island,-39.5268,176.8511,,Napier
4112,Waiohiki,Hawke's Bay,North Island,-39.5268,176.8511,,Napier
4120,Bridge Pa,Hawke's Bay,North Island,-39.6279,176.8137,,Hastings
4120,Camberley,Hawke's Bay,North Island,-39.6279,176.8137,,Hastings
4120,Flaxmere,Hawke's Bay,North Island,-39.6279,176.8137,,Hastings
4120,Frimley,Hawke's Bay,North Island,-39.6279,176.8137,,Hastings
4120,HASTINGS,Hawke's Bay,North Island,-39.6279,176.8137,,Hastings District
4120,Longlands,Hawke's Bay,North Island,-39.6279,176.8137,,Hastings
4120,Mahora,Hawke's Bay,North Island,-39.6279,176.8137,,Hastings
4120,Raureka,Hawke's Bay,North Island,-39.6279,176.8137,,Hastings
4120,St Leonards,Hawke's Bay,North Island,-39.6279,176.8137,,Hastings
4120,Tomoana,Hawke's Bay,North Island,-39.6279,176.8137,,Hastings
4120,Woolwich,Hawke's Bay,North Island,-39.6279,176.8137,,Hastings
4122,Akina,Hawke's Bay,North Island,-39.6462,176.8502,,Hastings District
4122,Hastings Central,Hawke's Bay,North Island,-39.6462,176.8502,,Hastings
4122,Longlands,Hawke's Bay,North Island,-39.6462,176.8502,,Hastings
4122,Mayfair,Hawke's Bay,North Island,-39.6462,176.8502,,Hastings
4122,Parkvale,Hawke's Bay,North Island,-39.6462,176.8502,,Hastings
4122,Waipatu,Hawke's Bay,North Island,-39.6462,176.8502,,Hastings
4130,Havelock North,Hawke's Bay,North Island,-39.6806,176.8867,,Hastings District
4140,Onekawa,Hawke's Bay,North Island,-39.4909,176.9182,,Napier City
4141,Taradale,Hawke's Bay,North Island,-39.5357,176.8487,,Napier City
4142,Pirimai,Hawke's Bay,North Island,-39.5073,176.8821,,Napier City
4143,Napier South,Hawke's Bay,North Island,-39.5002,176.9031,,Napier City
4144,Ahuriri,Hawke's Bay,North Island,-39.4809,176.8981,,Napier City
4145,Greenmeadows,Hawke's Bay,North Island,-39.5264,176.8614,,Napier City
4146,Pirimai,Hawke's Bay,North Island,-39.5081,176.8868,,Napier City
4147,Tamatea,Hawke's Bay,North Island,-39.5106,176.8696,,Napier City
4148,Clive,Hawke's Bay,North Island,-39.5839,176.9148,,Hastings District
4149,Petane,Hawke's Bay,North Island,-39.419,176.8665,,Napier City
4153,Saint Leonards,Hawke's Bay,North Island,-39.6312,176.8314,,Hastings District
4154,Flaxmere,Hawke's Bay,North Island,-39.6254,176.7866,,Hastings District
4155,Parkvale,Hawke's Bay,North Island,-39.6284,176.8498,,Hastings District
4156,Parkvale,Hawke's Bay,North Island,-39.6408,176.8425,,Hastings District
4157,Havelock North,Hawke's Bay,North Island,-39.6694,176.8783,,Hastings District
4158,Parkvale,Hawke's Bay,North Island,-39.6396,176.8466,,Hastings District
4159,Mayfair,Hawke's Bay,North Island,-39.6378,176.8527,,Hastings District
4160,Wairoa,Hawke's Bay,North Island,-39.0333,177.419,,Wairoa District
4161,Pahowai,Hawke's Bay,North Island,-39.6038,176.8928,,Hastings District
4162,Tutira,Hawke's Bay,North Island,-39.204,176.8815,,Hastings District
4163,Frasertown,Hawke's Bay,North Island,-38.9666,177.4102,,Wairoa District
4164,Tuai,Hawke's Bay,North Island,-38.8194,177.1439,,Wairoa District
4165,Nuhaka,Hawke's Bay,North Island,-39.0425,177.7403,,Wairoa District
4166,Mahia,Hawke's Bay,North Island,-39.0869,177.9185,,Wairoa District
4171,Blackburn,Hawke's Bay,North Island,-39.8865,176.292,,Hastings District
4172,Te Awanga,Hawke's Bay,North Island,-39.6588,176.9405,,Hastings District
4174,Te Hauke,Hawke's Bay,North Island,-39.7357,176.6463,,Hastings District
4175,Flaxmere,Hawke's Bay,North Island,-39.6232,176.7618,,Hastings District
4178,Poukawa,Hawke's Bay,North Island,-39.772,176.7544,,Central Hawke's Bay District
4179,Puketitiri,Hawke's Bay,North Island,-39.3382,176.3562,,Hastings District
4181,Tutira,Hawke's Bay,North Island,-39.2293,176.9144,,Hastings District
4182,Te Pohue,Hawke's Bay,North Island,-39.1869,176.6716,,Hastings District
4183,Taradale,Hawke's Bay,North Island,-39.5439,176.8176,,Napier City
4184,Puketitiri,Hawke's Bay,North Island,-39.3052,176.5916,,Hastings District
4186,Patoka,Hawke's Bay,North Island,-39.3916,176.631,,Hastings District
4188,Kotemaori,Hawke's Bay,North Island,-39.0869,177.0019,,Hastings District
4189,Kotemaori,Hawke's Bay,North Island,-38.9813,176.9956,,Wairoa District
4191,Raupunga,Hawke's Bay,North Island,-38.9822,177.2238,,Wairoa District
4193,Wairoa,Hawke's Bay,North Island,-39.0076,177.343,,Wairoa District
4195,Tuai,Hawke's Bay,North Island,-38.7742,177.2002,,Wairoa District
4196,Opoiti,Hawke's Bay,North Island,-38.9559,177.5408,,Wairoa District
4197,Raupunga,Hawke's Bay,North Island,-39.063,177.2422,,Wairoa District
4198,Waitaniwha,Hawke's Bay,North Island,-39.0721,177.8021,,Wairoa District
4200,Waipukurau,Hawke's Bay,North Island,-39.9973,176.5591,,Central Hawke's Bay District
4202,Otane,Hawke's Bay,North Island,-39.898,176.6275,,Central Hawke's Bay District
4203,Clinton,Hawke's Bay,North Island,-40.0222,176.3499,,Central Hawke's Bay
4203,Takapau,Hawke's Bay,North Island,-40.0222,176.3499,,Central Hawke's Bay District
4210,Waipawa,Hawke's Bay,North Island,-39.9289,176.5855,,Central Hawke's Bay District
4240,Waipawa,Hawke's Bay,North Island,-39.9442,176.5868,,Central Hawke's Bay District
4241,Otane,Hawke's Bay,North Island,-39.8966,176.6287,,Central Hawke's Bay District
4242,Waipukurau,Hawke's Bay,North Island,-39.9954,176.5563,,Central Hawke's Bay District
4243,Takapau,Hawke's Bay,North Island,-40.0282,176.3484,,Central Hawke's Bay District
4244,Onga Onga,Hawke's Bay,North Island,-39.913,176.4185,,Central Hawke's Bay District
4245,Porangahau,Hawke's Bay,North Island,-40.3024,176.6101,,Central Hawke's Bay District
4271,Patangata,Hawke's Bay,North Island,-40.0457,176.7528,,Central Hawke's Bay District
4272,Ruataniwha,Hawke's Bay,North Island,-39.9184,176.5078,,Central Hawke's Bay District
4273,Argyll East,Hawke's Bay,North Island,-39.8672,176.5055,,Central Hawke's Bay District
4274,Tikokino,Hawke's Bay,North Island,-39.7684,176.3925,,Central Hawke's Bay District
4275,Waipawa,Hawke's Bay,North Island,-39.9644,176.5872,,Central Hawke's Bay District
4276,Pukehou,Hawke's Bay,North Island,-39.8517,176.5974,,Hastings District
4277,Patangata,Hawke's Bay,North Island,-39.8817,176.7075,,Central Hawke's Bay District
4278,Blackburn,Hawke's Bay,North Island,-39.8701,176.3054,,Central Hawke's Bay District
4279,Blackburn,Hawke's Bay,North Island,-39.8275,176.332,,Central Hawke's Bay District
4281,Maharakeke,Hawke's Bay,North Island,-40.0431,176.4391,,Central Hawke's Bay District
4282,Wanstead,Hawke's Bay,North Island,-40.1206,176.4449,,Central Hawke's Bay District
4283,Ruataniwha,Hawke's Bay,North Island,-39.9519,176.4761,,Central Hawke's Bay District
4284,Wallingford,Hawke's Bay,North Island,-40.1509,176.6552,,Central Hawke's Bay District
4285,Waipukurau,Hawke's Bay,North Island,-40.007,176.623,,Central Hawke's Bay District
4286,Ashley Clinton,Hawke's Bay,North Island,-39.9488,176.2699,,Central Hawke's Bay District
4287,Norsewood,Hawke's Bay,North Island,-40.0526,176.2563,,Central Hawke's Bay District
4288,Maharakeke,Hawke's Bay,North Island,-39.9737,176.402,,Central Hawke's Bay District
4291,Porangahau,Hawke's Bay,North Island,-40.3086,176.5164,,Central Hawke's Bay District
4292,Porangahau,Hawke's Bay,North Island,-40.3623,176.5533,,Central Hawke's Bay District
4293,Porangahau,Hawke's Bay,North Island,-40.3501,176.6208,,Central Hawke's Bay District
4294,Waimarama,Hawke's Bay,North Island,-39.7714,176.9602,,Hastings District
4295,Elsthorpe,Hawke's Bay,North Island,-39.8729,176.8721,,Central Hawke's Bay District
4310,Blagdon,Taranaki,North Island,-39.0724,174.0554,,New Plymouth
4310,Brooklands,Taranaki,North Island,-39.0724,174.0554,,New Plymouth
4310,Ferndale,Taranaki,North Island,-39.0724,174.0554,,New Plymouth
4310,Frankleigh Park,Taranaki,North Island,-39.0724,174.0554,,New Plymouth
4310,Hurdon,Taranaki,North Island,-39.0724,174.0554,,New Plymouth
4310,Lower Vogeltown,Taranaki,North Island,-39.0724,174.0554,,New Plymouth
4310,Lynmouth,Taranaki,North Island,-39.0724,174.0554,,New Plymouth
4310,Marfell,Taranaki,North Island,-39.0724,174.0554,,New Plymouth
4310,Moturoa,Taranaki,North Island,-39.0724,174.0554,,New Plymouth
4310,New Plymouth Central,Taranaki,North Island,-39.0724,174.0554,,New Plymouth
4310,Port Taranaki,Taranaki,North Island,-39.0724,174.0554,,New Plymouth
4310,Spotswood,Taranaki,North Island,-39.0724,174.0554,,New Plymouth
4310,Upper Vogeltown,Taranaki,North Island,-39.0724,174.0554,,New Plymouth
4310,Vogeltown,Taranaki,North Island,-39.0724,174.0554,,New Plymouth
4310,Welbourn,Taranaki,North Island,-39.0724,174.0554,,New Plymouth
4310,Westown,Taranaki,North Island,-39.0724,174.0554,,New Plymouth District
4310,Whalers Gate,Taranaki,North Island,-39.0724,174.0554,,New Plymouth
4312,Bell Block,Taranaki,North Island,-39.052,174.1192,,New Plymouth
4312,Fitzroy,Taranaki,North Island,-39.052,174.1192,,New Plymouth District
4312,Glen Avon,Taranaki,North Island,-39.052,174.1192,,New Plymouth
4312,Highlands Park,Taranaki,North Island,-39.052,174.1192,,New Plymouth
4312,Merrilands,Taranaki,North Island,-39.052,174.1192,,New Plymouth
4312,New Plymouth Central,Taranaki,North Island,-39.052,174.1192,,New Plymouth
4312,Strandon,Taranaki,North Island,-39.052,174.1192,,New Plymouth
4312,Waiwhakaiho,Taranaki,North Island,-39.052,174.1192,,New Plymouth
4312,Welbourn,Taranaki,North Island,-39.052,174.1192,,New Plymouth
4314,Oakura,Taranaki,North Island,-39.115,173.9504,,New Plymouth District
4320,Waitara,Taranaki,North Island,-38.9976,174.2367,,New Plymouth District
4322,Eltham,Taranaki,North Island,-39.429,174.2996,,South Taranaki District
4330,Inglewood,Taranaki,North Island,-39.157,174.2029,,New Plymouth District
4332,Stratford,Taranaki,North Island,-39.3378,174.2802,,Stratford District
4335,Okato,Taranaki,North Island,-39.1936,173.8777,,New Plymouth District
4340,Brooklands,Taranaki,North Island,-39.0586,174.0682,,New Plymouth District
4341,Fitzroy,Taranaki,North Island,-39.05,174.1017,,New Plymouth District
4342,New Plymouth,Taranaki,North Island,-39.0572,174.0741,,New Plymouth District
4343,Frankleigh Park,Taranaki,North Island,-39.0708,174.0628,,New Plymouth District
4344,Moturoa,Taranaki,North Island,-39.0628,174.0452,,New Plymouth District
4345,Oakura,Taranaki,North Island,-39.1156,173.9574,,New Plymouth District
4346,Waitara,Taranaki,North Island,-39.0021,174.2361,,New Plymouth District
4347,Inglewood,Taranaki,North Island,-39.1568,174.2072,,New Plymouth District
4348,Okato,Taranaki,North Island,-39.191,173.8794,,New Plymouth District
4349,Urenui,Taranaki,North Island,-38.9979,174.3907,,New Plymouth District
4350,Mokau,Waikato,North Island,-38.6991,174.621,,Waitomo District
4351,Bell Block,Taranaki,North Island,-39.0355,174.1432,,New Plymouth District
4352,Stratford,Taranaki,North Island,-39.3393,174.283,,Stratford District
4353,Eltham,Taranaki,North Island,-39.4298,174.2994,,South Taranaki District
4360,Merrilands,Taranaki,North Island,-39.0666,174.1028,,New Plymouth District
4371,Mangorei,Taranaki,North Island,-39.1487,174.0832,,New Plymouth District
4372,Hillsborough,Taranaki,North Island,-39.0917,174.1506,,New Plymouth District
4373,Lepperton,Taranaki,North Island,-39.0487,174.2197,,New Plymouth District
4374,Oakura,Taranaki,North Island,-39.1464,173.9507,,New Plymouth District
4375,Okoki,Taranaki,North Island,-39.0529,174.5077,,New Plymouth District
4376,Awakino,Waikato,North Island,-38.6827,174.7513,,Waitomo District
4377,Uruti,Taranaki,North Island,-38.9421,174.4819,,New Plymouth District
4378,Okau,Taranaki,North Island,-38.9105,174.6847,,New Plymouth District
4379,Uruti,Taranaki,North Island,-38.9415,174.5497,,New Plymouth District
4381,Okato,Taranaki,North Island,-39.2227,173.8774,,New Plymouth District
4382,Sentry Hill,Taranaki,North Island,-39.0139,174.2171,,New Plymouth District
4383,Tikorangi,Taranaki,North Island,-39.0507,174.3067,,New Plymouth District
4386,Kaimiro,Taranaki,North Island,-39.2077,174.1435,,New Plymouth District
4387,Tarata,Taranaki,North Island,-39.155,174.3796,,Stratford District
4388,Te Tawa,Taranaki,North Island,-39.179,174.2446,,New Plymouth District
4389,Waiongona,Taranaki,North Island,-39.1194,174.2335,,New Plymouth District
4390,Ratapiko,Taranaki,North Island,-39.207,174.3078,,Stratford District
4391,Dawson Falls,Taranaki,North Island,-39.3216,174.1399,,South Taranaki District
4392,Puniwhakau,Manawatu-Wanganui,North Island,-39.3023,174.7213,,Stratford District
4393,Huinga,Taranaki,North Island,-39.3746,174.3671,,Stratford District
4394,Tuna,Taranaki,North Island,-39.2797,174.2974,,New Plymouth District
4395,Matau,Taranaki,North Island,-39.1747,174.6005,,Stratford District
4396,Tahora,Manawatu-Wanganui,North Island,-39.0278,174.7836,,Stratford District
4397,Tahora,Taranaki,North Island,-38.973,174.7784,,Stratford District
4398,Eltham,Taranaki,North Island,-39.4578,174.3421,,South Taranaki District
4399,Moeroa,Taranaki,North Island,-39.4309,174.6351,,South Taranaki District
4410,Fitzherbert,Manawatu-Wanganui,North Island,-40.3691,175.6288,,Palmerston North
4410,Hokowhitu,Manawatu-Wanganui,North Island,-40.3691,175.6288,,Palmerston North
4410,Palmerston North,Manawatu-Wanganui,North Island,-40.3691,175.6288,,Palmerston North
4410,Summerhill,Manawatu-Wanganui,North Island,-40.3691,175.6288,,Palmerston North City
4410,Terrace End,Manawatu-Wanganui,North Island,-40.3691,175.6288,,Palmerston North
4412,Awapuni,Manawatu-Wanganui,North Island,-40.3658,175.5885,,Manawatu District
4412,Cloverlea,Manawatu-Wanganui,North Island,-40.3658,175.5885,,Manawatu
4412,Highbury,Manawatu-Wanganui,North Island,-40.3658,175.5885,,Manawatu
4412,Takaro,Manawatu-Wanganui,North Island,-40.3658,175.5885,,Manawatu
4412,West End,Manawatu-Wanganui,North Island,-40.3658,175.5885,,Manawatu
4414,Kelvin Grove,Manawatu-Wanganui,North Island,-40.3326,175.63,,Palmerston North City
4414,Milson,Manawatu-Wanganui,North Island,-40.3326,175.63,,Palmerston North
4414,Roslyn,Manawatu-Wanganui,North Island,-40.3326,175.63,,Palmerston North
4440,Hokowhitu,Manawatu-Wanganui,North Island,-40.3581,175.6107,,Palmerston North City
4441,Terrace End,Manawatu-Wanganui,North Island,-40.3476,175.6277,,Palmerston North City
4442,Takaro,Manawatu-Wanganui,North Island,-40.3454,175.5952,,Palmerston North City
4443,West End,Manawatu-Wanganui,North Island,-40.3622,175.5984,,Palmerston North City
4444,Terrace End,Manawatu-Wanganui,North Island,-40.3555,175.6123,,Palmerston North City
4445,Awapuni,Manawatu-Wanganui,North Island,-40.3726,175.593,,Palmerston North City
4446,Hokowhitu,Manawatu-Wanganui,North Island,-40.3632,175.6338,,Palmerston North City
4448,Summerhill,Manawatu-Wanganui,North Island,-40.3874,175.6393,,Palmerston North City
4470,Ashhurst,Manawatu-Wanganui,North Island,-40.2905,175.7028,,Manawatu District
4471,Aokautere,Manawatu-Wanganui,North Island,-40.3626,175.7135,,Tararua District
4473,Carnarvon,Manawatu-Wanganui,North Island,-40.3156,175.3396,,Manawatu District
4474,Tokomaru,Manawatu-Wanganui,North Island,-40.5035,175.5456,,Horowhenua District
4475,Kairanga,Manawatu-Wanganui,North Island,-40.3307,175.5202,,Palmerston North City
4476,Rongotea,Manawatu-Wanganui,North Island,-40.2862,175.4393,,Manawatu District
4477,Mangawhata,Manawatu-Wanganui,North Island,-40.3989,175.4478,,Horowhenua District
4478,Milson,Manawatu-Wanganui,North Island,-40.2979,175.5922,,Manawatu District
4479,Sanson,Manawatu-Wanganui,North Island,-40.2317,175.4358,,Manawatu District
4481,Bunnythorpe,Manawatu-Wanganui,North Island,-40.2755,175.6657,,Manawatu District
4500,Aramoho,Manawatu-Wanganui,North Island,-39.9146,175.0546,,Whanganui District
4500,College Estate,Manawatu-Wanganui,North Island,-39.9146,175.0546,,Whanganui
4500,Durie Hill,Manawatu-Wanganui,North Island,-39.9146,175.0546,,Whanganui
4500,Gonville,Manawatu-Wanganui,North Island,-39.9146,175.0546,,Whanganui
4500,Kowhai Park,Manawatu-Wanganui,North Island,-39.9146,175.0546,,Whanganui
4500,Okoia,Manawatu-Wanganui,North Island,-39.9146,175.0546,,Whanganui
4500,Otamatea,Manawatu-Wanganui,North Island,-39.9146,175.0546,,Whanganui
4500,Putiki,Manawatu-Wanganui,North Island,-39.9146,175.0546,,Whanganui
4500,St Johns Hill,Manawatu-Wanganui,North Island,-39.9146,175.0546,,Whanganui
4500,Wanganui Central,Manawatu-Wanganui,North Island,-39.9146,175.0546,,Whanganui
4500,Wanganui East,Manawatu-Wanganui,North Island,-39.9146,175.0546,,Whanganui
4501,Balgownie,Manawatu-Wanganui,North Island,-39.9401,175.0133,,Whanganui
4501,Castlecliff,Manawatu-Wanganui,North Island,-39.9401,175.0133,,Whanganui
4501,College Estate,Manawatu-Wanganui,North Island,-39.9401,175.0133,,Whanganui
4501,Gonville,Manawatu-Wanganui,North Island,-39.9401,175.0133,,Whanganui District
4501,Otamatea,Manawatu-Wanganui,North Island,-39.9401,175.0133,,Whanganui
4501,Putiki,Manawatu-Wanganui,North Island,-39.9401,175.0133,,Whanganui
4501,Springvale,Manawatu-Wanganui,North Island,-39.9401,175.0133,,Whanganui
4501,St Johns Hill,Manawatu-Wanganui,North Island,-39.9401,175.0133,,Whanganui
4501,Tawhero,Manawatu-Wanganui,North Island,-39.9401,175.0133,,Whanganui
4501,Wanganui Airport,Manawatu-Wanganui,North Island,-39.9401,175.0133,,Whanganui
4501,Westmere,Manawatu-Wanganui,North Island,-39.9401,175.0133,,Whanganui
4510,Waverley,Taranaki,North Island,-39.7628,174.6317,,South Taranaki District
4520,Patea,Taranaki,North Island,-39.7584,174.4695,,South Taranaki
4520,White Tank,Taranaki,North Island,-39.7584,174.4695,,South Taranaki District
4540,Wanganui,Taranaki,North Island,-39.9344,175.0532,,South Taranaki District
4541,Wanganui,Manawatu-Wanganui,North Island,-39.9295,175.0466,,Whanganui District
4542,Wanganui East,Manawatu-Wanganui,North Island,-39.9096,175.0533,,Whanganui District
4543,Gonville,Manawatu-Wanganui,North Island,-39.9428,175.0226,,Whanganui District
4544,Waverley,Taranaki,North Island,-39.7637,174.6343,,South Taranaki District
4545,White Tank,Taranaki,North Island,-39.756,174.4737,,South Taranaki District
4547,Turakina South,Manawatu-Wanganui,North Island,-40.0467,175.2138,,Rangitikei District
4548,Ratana,Manawatu-Wanganui,North Island,-40.0394,175.1756,,Rangitikei District
4549,Waitotara,Taranaki,North Island,-39.8069,174.734,,South Taranaki District
4571,Brunswick,Manawatu-Wanganui,North Island,-39.8193,175.0206,,Whanganui District
4572,Wiritoa,Manawatu-Wanganui,North Island,-39.9823,175.1162,,Whanganui District
4573,Kakatahi,Manawatu-Wanganui,North Island,-39.674,175.2513,,Ruapehu District
4574,Mowhanau,Manawatu-Wanganui,North Island,-39.8531,174.8924,,Whanganui District
4575,Upokonui,Manawatu-Wanganui,North Island,-39.7918,175.1865,,Whanganui District
4576,Matahiwi,Manawatu-Wanganui,North Island,-39.6251,175.1175,,Ruapehu District
4577,Kauangaroa,Manawatu-Wanganui,North Island,-39.8951,175.3413,,Whanganui District
4578,Ahuiti,Taranaki,North Island,-39.6577,175.0021,,South Taranaki District
4581,Turakina,Manawatu-Wanganui,North Island,-40.0084,175.2327,,Rangitikei District
4582,Okoia,Manawatu-Wanganui,North Island,-39.9118,175.1679,,Whanganui District
4584,Whakaihuwaka,Manawatu-Wanganui,North Island,-39.7719,175.0626,,Whanganui District
4585,Kakatahi,Manawatu-Wanganui,North Island,-39.599,175.4148,,Whanganui District
4586,Kakatahi,Manawatu-Wanganui,North Island,-39.7307,175.4134,,Whanganui District
4587,Nukumaru,Manawatu-Wanganui,North Island,-39.8064,174.8084,,Whanganui District
4588,Tawhiwhi,Taranaki,North Island,-39.6228,174.8503,,South Taranaki District
4591,Nukuhau,Taranaki,North Island,-39.6418,174.6316,,South Taranaki District
4592,Mangawhio,Taranaki,North Island,-39.7201,174.7245,,South Taranaki District
4597,Matukuroa,Taranaki,North Island,-39.7038,174.5409,,South Taranaki District
4598,Hurleyville,Taranaki,North Island,-39.6331,174.4858,,South Taranaki District
4610,Hawera,Taranaki,North Island,-39.5854,174.2825,,South Taranaki District
4612,Manaia,Taranaki,North Island,-39.5512,174.1251,,South Taranaki District
4614,Normanby,Taranaki,North Island,-39.5417,174.2726,,South Taranaki District
4616,Opunake,Taranaki,North Island,-39.4523,173.8572,,South Taranaki District
4625,Ohakune,Manawatu-Wanganui,North Island,-39.4103,175.4031,,Ruapehu District
4632,Raetihi,Manawatu-Wanganui,North Island,-39.4286,175.2878,,Ruapehu District
4640,Hawera,Taranaki,North Island,-39.59,174.2837,,South Taranaki District
4641,Manaia,Taranaki,North Island,-39.5515,174.125,,South Taranaki District
4642,Kaponga,Taranaki,North Island,-39.4293,174.1506,,South Taranaki District
4645,Opunake,Taranaki,North Island,-39.4539,173.8585,,South Taranaki District
4646,Raetihi,Manawatu-Wanganui,North Island,-39.4259,175.2765,,Ruapehu District
4660,Ohakune,Manawatu-Wanganui,North Island,-39.4176,175.3987,,Ruapehu District
4671,Okaiawa,Taranaki,North Island,-39.5534,174.1949,,South Taranaki District
4672,Meremere,Taranaki,North Island,-39.5673,174.3894,,South Taranaki District
4673,Te Roti,Taranaki,North Island,-39.4856,174.2924,,South Taranaki District
4674,Ararata,Taranaki,North Island,-39.528,174.3533,,South Taranaki District
4675,Matapu,Taranaki,North Island,-39.5066,174.2201,,South Taranaki District
4678,Kaupokonui,Taranaki,North Island,-39.5139,174.079,,South Taranaki District
4679,Riverlea,Taranaki,North Island,-39.4256,174.0879,,South Taranaki District
4681,Oaonui,Taranaki,North Island,-39.3861,173.8804,,South Taranaki District
4682,Waiteika,Taranaki,North Island,-39.4564,173.9364,,South Taranaki District
4684,Upper Kahui,Taranaki,North Island,-39.3292,173.8783,,South Taranaki District
4685,Parihaka Pa,Taranaki,North Island,-39.2896,173.825,,South Taranaki District
4691,Rangataua,Manawatu-Wanganui,North Island,-39.3296,175.5524,,Ruapehu District
4694,Raetihi,Manawatu-Wanganui,North Island,-39.477,175.1922,,Ruapehu District
4696,Te Ranga,Manawatu-Wanganui,North Island,-39.2854,175.1762,,Ruapehu District
4702,FEILDING,Manawatu-Wanganui,North Island,-40.2171,175.5663,,Manawatu District
4710,Marton,Manawatu-Wanganui,North Island,-40.0724,175.3798,,Rangitikei District
4720,Taihape,Manawatu-Wanganui,North Island,-39.6828,175.7899,,Rangitikei District
4730,Hunterville,Manawatu-Wanganui,North Island,-39.9337,175.5688,,Rangitikei District
4740,FEILDING,Manawatu-Wanganui,North Island,-40.2267,175.5654,,Manawatu District
4741,Marton,Manawatu-Wanganui,North Island,-40.0668,175.3787,,Rangitikei District
4742,Taihape,Manawatu-Wanganui,North Island,-39.6773,175.7982,,Rangitikei District
4744,Kimbolton,Manawatu-Wanganui,North Island,-40.0574,175.7794,,Manawatu District
4745,Hunterville,Manawatu-Wanganui,North Island,-39.9371,175.5685,,Rangitikei District
4746,Mangaweka,Manawatu-Wanganui,North Island,-39.8096,175.7887,,Rangitikei District
4771,Umutoi,Manawatu-Wanganui,North Island,-39.9989,175.9452,,Manawatu District
4774,Apiti,Manawatu-Wanganui,North Island,-39.9336,175.8575,,Rangitikei District
4775,Colyton,Manawatu-Wanganui,North Island,-40.213,175.6339,,Palmerston North City
4777,Kiwitea,Manawatu-Wanganui,North Island,-40.0927,175.7361,,Manawatu District
4779,Waituna West,Manawatu-Wanganui,North Island,-40.0865,175.5853,,Manawatu District
4780,Rewa,Manawatu-Wanganui,North Island,-39.9915,175.6314,,Manawatu District
4781,Silverhope,Manawatu-Wanganui,North Island,-39.9088,175.4387,,Rangitikei District
4782,Pukeroa,Manawatu-Wanganui,North Island,-39.8123,175.5464,,Rangitikei District
4783,Pakihikura,Manawatu-Wanganui,North Island,-39.9228,175.7,,Rangitikei District
4784,Silverhope,Manawatu-Wanganui,North Island,-39.9478,175.5212,,Rangitikei District
4785,Poukiore,Manawatu-Wanganui,North Island,-39.8467,175.6335,,Rangitikei District
4786,Rewa,Manawatu-Wanganui,North Island,-39.956,175.6052,,Rangitikei District
4787,Cliff Road,Manawatu-Wanganui,North Island,-40.0513,175.4852,,Rangitikei District
4788,Marton,Manawatu-Wanganui,North Island,-40.0079,175.3642,,Rangitikei District
